[
    {
        "country_code": "CN", 
        "elevation": 0, 
        "feature_code": "PPLA", 
        "latitude": 31.22222, 
        "longitude": 121.45806, 
        "name": "Shanghai", 
        "population": 22315474
    }, 
    {
        "country_code": "AR", 
        "elevation": 0, 
        "feature_code": "PPLC", 
        "latitude": -34.61315, 
        "longitude": -58.37723, 
        "name": "Buenos Aires", 
        "population": 13076300
    }, 
    {
        "country_code": "IN", 
        "elevation": 0, 
        "feature_code": "PPLA", 
        "latitude": 19.07283, 
        "longitude": 72.88261, 
        "name": "Mumbai", 
        "population": 12691836
    }, 
    {
        "country_code": "MX", 
        "elevation": 0, 
        "feature_code": "PPLC", 
        "latitude": 19.42847, 
        "longitude": -99.12766, 
        "name": "Mexico City", 
        "population": 12294193
    }, 
    {
        "country_code": "CN", 
        "elevation": 0, 
        "feature_code": "PPLC", 
        "latitude": 39.9075, 
        "longitude": 116.39723, 
        "name": "Beijing", 
        "population": 11716620
    }, 
    {
        "country_code": "PK", 
        "elevation": 0, 
        "feature_code": "PPLA", 
        "latitude": 24.9056, 
        "longitude": 67.0822, 
        "name": "Karachi", 
        "population": 11624219
    }, 
    {
        "country_code": "TR", 
        "elevation": 0, 
        "feature_code": "PPLA", 
        "latitude": 41.01384, 
        "longitude": 28.94966, 
        "name": "\u0130stanbul", 
        "population": 11174257
    }, 
    {
        "country_code": "CN", 
        "elevation": 0, 
        "feature_code": "PPLA", 
        "latitude": 39.14222, 
        "longitude": 117.17667, 
        "name": "Tianjin", 
        "population": 11090314
    }, 
    {
        "country_code": "CN", 
        "elevation": 0, 
        "feature_code": "PPLA", 
        "latitude": 23.11667, 
        "longitude": 113.25, 
        "name": "Guangzhou", 
        "population": 11071424
    }, 
    {
        "country_code": "IN", 
        "elevation": 0, 
        "feature_code": "PPLA", 
        "latitude": 28.65381, 
        "longitude": 77.22897, 
        "name": "Delhi", 
        "population": 10927986
    }, 
    {
        "country_code": "PH", 
        "elevation": 0, 
        "feature_code": "PPLC", 
        "latitude": 14.6042, 
        "longitude": 120.9822, 
        "name": "Manila", 
        "population": 10444527
    }, 
    {
        "country_code": "RU", 
        "elevation": 0, 
        "feature_code": "PPLC", 
        "latitude": 55.75222, 
        "longitude": 37.61556, 
        "name": "Moscow", 
        "population": 10381222
    }, 
    {
        "country_code": "CN", 
        "elevation": 0, 
        "feature_code": "PPLA2", 
        "latitude": 22.54554, 
        "longitude": 114.0683, 
        "name": "Shenzhen", 
        "population": 10358381
    }, 
    {
        "country_code": "BD", 
        "elevation": 0, 
        "feature_code": "PPLC", 
        "latitude": 23.7104, 
        "longitude": 90.40744, 
        "name": "Dhaka", 
        "population": 10356500
    }, 
    {
        "country_code": "KR", 
        "elevation": 0, 
        "feature_code": "PPLC", 
        "latitude": 37.566, 
        "longitude": 126.9784, 
        "name": "Seoul", 
        "population": 10349312
    }, 
    {
        "country_code": "BR", 
        "elevation": 0, 
        "feature_code": "PPLA", 
        "latitude": -23.5475, 
        "longitude": -46.63611, 
        "name": "S\u00e3o Paulo", 
        "population": 10021295
    }, 
    {
        "country_code": "CN", 
        "elevation": 0, 
        "feature_code": "PPLA", 
        "latitude": 30.58333, 
        "longitude": 114.26667, 
        "name": "Wuhan", 
        "population": 9785388
    }, 
    {
        "country_code": "NG", 
        "elevation": 0, 
        "feature_code": "PPL", 
        "latitude": 6.45306, 
        "longitude": 3.39583, 
        "name": "Lagos", 
        "population": 9000000
    }, 
    {
        "country_code": "ID", 
        "elevation": 0, 
        "feature_code": "PPLC", 
        "latitude": -6.21462, 
        "longitude": 106.84513, 
        "name": "Jakarta", 
        "population": 8540121
    }, 
    {
        "country_code": "JP", 
        "elevation": 0, 
        "feature_code": "PPLC", 
        "latitude": 35.6895, 
        "longitude": 139.69171, 
        "name": "Tokyo", 
        "population": 8336599
    }, 
    {
        "country_code": "US", 
        "elevation": 10, 
        "feature_code": "PPL", 
        "latitude": 40.71427, 
        "longitude": -74.00597, 
        "name": "New York City", 
        "population": 8175133
    }, 
    {
        "country_code": "CN", 
        "elevation": 0, 
        "feature_code": "PPLA2", 
        "latitude": 23.04889, 
        "longitude": 113.74472, 
        "name": "Dongguan", 
        "population": 8000000
    }, 
    {
        "country_code": "TW", 
        "elevation": 0, 
        "feature_code": "PPLC", 
        "latitude": 25.04776, 
        "longitude": 121.53185, 
        "name": "Taipei", 
        "population": 7871900
    }, 
    {
        "country_code": "CD", 
        "elevation": 0, 
        "feature_code": "PPLC", 
        "latitude": -4.32758, 
        "longitude": 15.31357, 
        "name": "Kinshasa", 
        "population": 7785965
    }, 
    {
        "country_code": "PE", 
        "elevation": 0, 
        "feature_code": "PPLC", 
        "latitude": -12.04318, 
        "longitude": -77.02824, 
        "name": "Lima", 
        "population": 7737002
    }, 
    {
        "country_code": "EG", 
        "elevation": 0, 
        "feature_code": "PPLC", 
        "latitude": 30.06263, 
        "longitude": 31.24967, 
        "name": "Cairo", 
        "population": 7734614
    }, 
    {
        "country_code": "CO", 
        "elevation": 0, 
        "feature_code": "PPLC", 
        "latitude": 4.60971, 
        "longitude": -74.08175, 
        "name": "Bogot\u00e1", 
        "population": 7674366
    }, 
    {
        "country_code": "GB", 
        "elevation": 0, 
        "feature_code": "PPLC", 
        "latitude": 51.50853, 
        "longitude": -0.12574, 
        "name": "London", 
        "population": 7556900
    }, 
    {
        "country_code": "CN", 
        "elevation": 0, 
        "feature_code": "PPLA", 
        "latitude": 29.56278, 
        "longitude": 106.55278, 
        "name": "Chongqing", 
        "population": 7457600
    }, 
    {
        "country_code": "CN", 
        "elevation": 0, 
        "feature_code": "PPLA", 
        "latitude": 30.66667, 
        "longitude": 104.06667, 
        "name": "Chengdu", 
        "population": 7415590
    }, 
    {
        "country_code": "CN", 
        "elevation": 0, 
        "feature_code": "PPLA", 
        "latitude": 32.06167, 
        "longitude": 118.77778, 
        "name": "Nanjing", 
        "population": 7165292
    }, 
    {
        "country_code": "IR", 
        "elevation": 0, 
        "feature_code": "PPLC", 
        "latitude": 35.69439, 
        "longitude": 51.42151, 
        "name": "Tehr\u0101n", 
        "population": 7153309
    }, 
    {
        "country_code": "CN", 
        "elevation": 0, 
        "feature_code": "PPLA3", 
        "latitude": 30.79508, 
        "longitude": 106.08474, 
        "name": "Nanchong", 
        "population": 7150000
    }, 
    {
        "country_code": "HK", 
        "elevation": 0, 
        "feature_code": "PPLC", 
        "latitude": 22.28552, 
        "longitude": 114.15769, 
        "name": "Hong Kong", 
        "population": 7012738
    }, 
    {
        "country_code": "CN", 
        "elevation": 0, 
        "feature_code": "PPLA", 
        "latitude": 34.25833, 
        "longitude": 108.92861, 
        "name": "Xi\u2019an", 
        "population": 6501190
    }, 
    {
        "country_code": "PK", 
        "elevation": 0, 
        "feature_code": "PPLA", 
        "latitude": 31.54972, 
        "longitude": 74.34361, 
        "name": "Lahore", 
        "population": 6310888
    }, 
    {
        "country_code": "CN", 
        "elevation": 0, 
        "feature_code": "PPLA", 
        "latitude": 41.79222, 
        "longitude": 123.43278, 
        "name": "Shenyang", 
        "population": 6255921
    }, 
    {
        "country_code": "CN", 
        "elevation": 0, 
        "feature_code": "PPLA", 
        "latitude": 30.29365, 
        "longitude": 120.16142, 
        "name": "Hangzhou", 
        "population": 6241971
    }, 
    {
        "country_code": "BR", 
        "elevation": 0, 
        "feature_code": "PPLA", 
        "latitude": -22.90278, 
        "longitude": -43.2075, 
        "name": "Rio de Janeiro", 
        "population": 6023699
    }, 
    {
        "country_code": "CN", 
        "elevation": 0, 
        "feature_code": "PPLA", 
        "latitude": 45.75, 
        "longitude": 126.65, 
        "name": "Harbin", 
        "population": 5878939
    }, 
    {
        "country_code": "IQ", 
        "elevation": 0, 
        "feature_code": "PPLC", 
        "latitude": 33.34058, 
        "longitude": 44.40088, 
        "name": "Baghdad", 
        "population": 5672513
    }, 
    {
        "country_code": "CN", 
        "elevation": 0, 
        "feature_code": "PPL", 
        "latitude": 36.18528, 
        "longitude": 117.12, 
        "name": "Tai\u2019an", 
        "population": 5499000
    }, 
    {
        "country_code": "CN", 
        "elevation": 0, 
        "feature_code": "PPLA2", 
        "latitude": 31.30408, 
        "longitude": 120.59538, 
        "name": "Suzhou", 
        "population": 5345961
    }, 
    {
        "country_code": "CN", 
        "elevation": 0, 
        "feature_code": "PPLA2", 
        "latitude": 23.36814, 
        "longitude": 116.71479, 
        "name": "Shantou", 
        "population": 5329024
    }, 
    {
        "country_code": "TH", 
        "elevation": 0, 
        "feature_code": "PPLC", 
        "latitude": 13.75398, 
        "longitude": 100.50144, 
        "name": "Bangkok", 
        "population": 5104476
    }, 
    {
        "country_code": "IN", 
        "elevation": 920, 
        "feature_code": "PPLA", 
        "latitude": 12.97194, 
        "longitude": 77.59369, 
        "name": "Bangalore", 
        "population": 5104047
    }, 
    {
        "country_code": "RU", 
        "elevation": 0, 
        "feature_code": "PPLA", 
        "latitude": 59.93863, 
        "longitude": 30.31413, 
        "name": "Saint Petersburg", 
        "population": 5028000
    }, 
    {
        "country_code": "CL", 
        "elevation": 0, 
        "feature_code": "PPLC", 
        "latitude": -33.45694, 
        "longitude": -70.64827, 
        "name": "Santiago", 
        "population": 4837295
    }, 
    {
        "country_code": "IN", 
        "elevation": 0, 
        "feature_code": "PPLA", 
        "latitude": 22.56263, 
        "longitude": 88.36304, 
        "name": "Kolkata", 
        "population": 4631392
    }, 
    {
        "country_code": "AU", 
        "elevation": 0, 
        "feature_code": "PPLA", 
        "latitude": -33.86785, 
        "longitude": 151.20732, 
        "name": "Sydney", 
        "population": 4627345
    }, 
    {
        "country_code": "CA", 
        "elevation": 0, 
        "feature_code": "PPLA", 
        "latitude": 43.70011, 
        "longitude": -79.4163, 
        "name": "Toronto", 
        "population": 4612191
    }, 
    {
        "country_code": "MM", 
        "elevation": 0, 
        "feature_code": "PPLA", 
        "latitude": 16.80528, 
        "longitude": 96.15611, 
        "name": "Yangon", 
        "population": 4477638
    }, 
    {
        "country_code": "CN", 
        "elevation": 0, 
        "feature_code": "PPLA", 
        "latitude": 36.66833, 
        "longitude": 116.99722, 
        "name": "Jinan", 
        "population": 4335989
    }, 
    {
        "country_code": "IN", 
        "elevation": 0, 
        "feature_code": "PPLA", 
        "latitude": 13.08784, 
        "longitude": 80.27847, 
        "name": "Chennai", 
        "population": 4328063
    }, 
    {
        "country_code": "CN", 
        "elevation": 0, 
        "feature_code": "PPLA", 
        "latitude": 34.75778, 
        "longitude": 113.64861, 
        "name": "Zhengzhou", 
        "population": 4253913
    }, 
    {
        "country_code": "AU", 
        "elevation": 0, 
        "feature_code": "PPLA", 
        "latitude": -37.814, 
        "longitude": 144.96332, 
        "name": "Melbourne", 
        "population": 4246375
    }, 
    {
        "country_code": "SA", 
        "elevation": 0, 
        "feature_code": "PPLC", 
        "latitude": 24.68773, 
        "longitude": 46.72185, 
        "name": "Riyadh", 
        "population": 4205961
    }, 
    {
        "country_code": "CN", 
        "elevation": 0, 
        "feature_code": "PPLA", 
        "latitude": 43.88, 
        "longitude": 125.32278, 
        "name": "Changchun", 
        "population": 4193073
    }, 
    {
        "country_code": "CN", 
        "elevation": 0, 
        "feature_code": "PPL", 
        "latitude": 38.91222, 
        "longitude": 121.60222, 
        "name": "Dalian", 
        "population": 4087733
    }, 
    {
        "country_code": "BD", 
        "elevation": 0, 
        "feature_code": "PPLA", 
        "latitude": 22.3384, 
        "longitude": 91.83168, 
        "name": "Chittagong", 
        "population": 3920222
    }, 
    {
        "country_code": "CN", 
        "elevation": 0, 
        "feature_code": "PPLA", 
        "latitude": 25.03889, 
        "longitude": 102.71833, 
        "name": "Kunming", 
        "population": 3855346
    }, 
    {
        "country_code": "EG", 
        "elevation": 0, 
        "feature_code": "PPLA", 
        "latitude": 31.21564, 
        "longitude": 29.95527, 
        "name": "Alexandria", 
        "population": 3811516
    }, 
    {
        "country_code": "US", 
        "elevation": 89, 
        "feature_code": "PPLA2", 
        "latitude": 34.05223, 
        "longitude": -118.24368, 
        "name": "Los Angeles", 
        "population": 3792621
    }, 
    {
        "country_code": "IN", 
        "elevation": 0, 
        "feature_code": "PPL", 
        "latitude": 23.02579, 
        "longitude": 72.58726, 
        "name": "Ahmedabad", 
        "population": 3719710
    }, 
    {
        "country_code": "CN", 
        "elevation": 0, 
        "feature_code": "PPLA2", 
        "latitude": 36.06605, 
        "longitude": 120.36939, 
        "name": "Qingdao", 
        "population": 3718835
    }, 
    {
        "country_code": "KR", 
        "elevation": 0, 
        "feature_code": "PPLA", 
        "latitude": 35.10278, 
        "longitude": 129.04028, 
        "name": "Busan", 
        "population": 3678555
    }, 
    {
        "country_code": "CI", 
        "elevation": 0, 
        "feature_code": "PPLA", 
        "latitude": 5.30966, 
        "longitude": -4.01266, 
        "name": "Abidjan", 
        "population": 3677115
    }, 
    {
        "country_code": "NG", 
        "elevation": 0, 
        "feature_code": "PPLA", 
        "latitude": 12.00012, 
        "longitude": 8.51672, 
        "name": "Kano", 
        "population": 3626068
    }, 
    {
        "country_code": "CN", 
        "elevation": 0, 
        "feature_code": "PPLA2", 
        "latitude": 23.02677, 
        "longitude": 113.13148, 
        "name": "Foshan", 
        "population": 3600000
    }, 
    {
        "country_code": "IN", 
        "elevation": 0, 
        "feature_code": "PPLA", 
        "latitude": 17.38405, 
        "longitude": 78.45636, 
        "name": "Hyderabad", 
        "population": 3597816
    }, 
    {
        "country_code": "CN", 
        "elevation": 0, 
        "feature_code": "PPLA3", 
        "latitude": 29.45679, 
        "longitude": 119.88872, 
        "name": "Puyang", 
        "population": 3590000
    }, 
    {
        "country_code": "JP", 
        "elevation": 0, 
        "feature_code": "PPLA", 
        "latitude": 35.44778, 
        "longitude": 139.6425, 
        "name": "Yokohama", 
        "population": 3574443
    }, 
    {
        "country_code": "NG", 
        "elevation": 0, 
        "feature_code": "PPLA", 
        "latitude": 7.38778, 
        "longitude": 3.89639, 
        "name": "Ibadan", 
        "population": 3565108
    }, 
    {
        "country_code": "SG", 
        "elevation": 0, 
        "feature_code": "PPLC", 
        "latitude": 1.28967, 
        "longitude": 103.85007, 
        "name": "Singapore", 
        "population": 3547809
    }, 
    {
        "country_code": "CN", 
        "elevation": 0, 
        "feature_code": "PPLA2", 
        "latitude": 31.56887, 
        "longitude": 120.28857, 
        "name": "Wuxi", 
        "population": 3543719
    }, 
    {
        "country_code": "CN", 
        "elevation": 0, 
        "feature_code": "PPLA2", 
        "latitude": 24.47979, 
        "longitude": 118.08187, 
        "name": "Xiamen", 
        "population": 3531347
    }, 
    {
        "country_code": "TR", 
        "elevation": 850, 
        "feature_code": "PPLC", 
        "latitude": 39.91987, 
        "longitude": 32.85427, 
        "name": "Ankara", 
        "population": 3517182
    }, 
    {
        "country_code": "CN", 
        "elevation": 0, 
        "feature_code": "PPLA4", 
        "latitude": 34.57952, 
        "longitude": 105.74238, 
        "name": "Tianshui", 
        "population": 3500000
    }, 
    {
        "country_code": "CN", 
        "elevation": 0, 
        "feature_code": "PPLA2", 
        "latitude": 29.87819, 
        "longitude": 121.54945, 
        "name": "Ningbo", 
        "population": 3491597
    }, 
    {
        "country_code": "VN", 
        "elevation": 0, 
        "feature_code": "PPLA", 
        "latitude": 10.82302, 
        "longitude": 106.62965, 
        "name": "Ho Chi Minh City", 
        "population": 3467331
    }, 
    {
        "country_code": "CN", 
        "elevation": 0, 
        "feature_code": "PPLA2", 
        "latitude": 32.6475, 
        "longitude": 110.77806, 
        "name": "Shiyan", 
        "population": 3460000
    }, 
    {
        "country_code": "ZA", 
        "elevation": 0, 
        "feature_code": "PPLA", 
        "latitude": -33.92584, 
        "longitude": 18.42322, 
        "name": "Cape Town", 
        "population": 3433441
    }, 
    {
        "country_code": "CN", 
        "elevation": 0, 
        "feature_code": "PPLA", 
        "latitude": 37.86944, 
        "longitude": 112.56028, 
        "name": "Taiyuan", 
        "population": 3426519
    }, 
    {
        "country_code": "DE", 
        "elevation": 74, 
        "feature_code": "PPLC", 
        "latitude": 52.52437, 
        "longitude": 13.41053, 
        "name": "Berlin", 
        "population": 3426354
    }, 
    {
        "country_code": "CN", 
        "elevation": 0, 
        "feature_code": "PPL", 
        "latitude": 39.63333, 
        "longitude": 118.18333, 
        "name": "Tangshan", 
        "population": 3372102
    }, 
    {
        "country_code": "CN", 
        "elevation": 0, 
        "feature_code": "PPLA2", 
        "latitude": 31.86389, 
        "longitude": 117.28083, 
        "name": "Hefei", 
        "population": 3310268
    }, 
    {
        "country_code": "CA", 
        "elevation": 0, 
        "feature_code": "PPLA2", 
        "latitude": 45.50884, 
        "longitude": -73.58781, 
        "name": "Montr\u00e9al", 
        "population": 3268513
    }, 
    {
        "country_code": "ES", 
        "elevation": 0, 
        "feature_code": "PPLC", 
        "latitude": 40.4165, 
        "longitude": -3.70256, 
        "name": "Madrid", 
        "population": 3255944
    }, 
    {
        "country_code": "KP", 
        "elevation": 0, 
        "feature_code": "PPLC", 
        "latitude": 39.03385, 
        "longitude": 125.75432, 
        "name": "Pyongyang", 
        "population": 3222000
    }, 
    {
        "country_code": "MA", 
        "elevation": 0, 
        "feature_code": "PPLA", 
        "latitude": 33.58831, 
        "longitude": -7.61138, 
        "name": "Casablanca", 
        "population": 3144909
    }, 
    {
        "country_code": "CN", 
        "elevation": 0, 
        "feature_code": "PPL", 
        "latitude": 36.79056, 
        "longitude": 118.06333, 
        "name": "Zibo", 
        "population": 3129228
    }, 
    {
        "country_code": "CN", 
        "elevation": 0, 
        "feature_code": "PPL", 
        "latitude": 21.31992, 
        "longitude": 110.5723, 
        "name": "Zhongshan", 
        "population": 3121275
    }, 
    {
        "country_code": "ZA", 
        "elevation": 0, 
        "feature_code": "PPLA2", 
        "latitude": -29.8579, 
        "longitude": 31.0292, 
        "name": "Durban", 
        "population": 3120282
    }, 
    {
        "country_code": "CN", 
        "elevation": 0, 
        "feature_code": "PPLA", 
        "latitude": 28.19874, 
        "longitude": 112.97087, 
        "name": "Changsha", 
        "population": 3093980
    }, 
    {
        "country_code": "AF", 
        "elevation": 0, 
        "feature_code": "PPLC", 
        "latitude": 34.52813, 
        "longitude": 69.17233, 
        "name": "Kabul", 
        "population": 3043532
    }, 
    {
        "country_code": "CN", 
        "elevation": 0, 
        "feature_code": "PPLA2", 
        "latitude": 43.80096, 
        "longitude": 87.60046, 
        "name": "\u00dcr\u00fcmqi", 
        "population": 3029372
    }, 
    {
        "country_code": "VE", 
        "elevation": 0, 
        "feature_code": "PPLC", 
        "latitude": 10.48801, 
        "longitude": -66.87919, 
        "name": "Caracas", 
        "population": 3000000
    }, 
    {
        "country_code": "IN", 
        "elevation": 0, 
        "feature_code": "PPL", 
        "latitude": 18.51957, 
        "longitude": 73.85535, 
        "name": "Pune", 
        "population": 2935744
    }, 
    {
        "country_code": "IN", 
        "elevation": 0, 
        "feature_code": "PPL", 
        "latitude": 21.19594, 
        "longitude": 72.83023, 
        "name": "S\u016brat", 
        "population": 2894504
    }, 
    {
        "country_code": "SA", 
        "elevation": 0, 
        "feature_code": "PPL", 
        "latitude": 21.54238, 
        "longitude": 39.19797, 
        "name": "Jeddah", 
        "population": 2867446
    }, 
    {
        "country_code": "CN", 
        "elevation": 0, 
        "feature_code": "PPLA", 
        "latitude": 38.04139, 
        "longitude": 114.47861, 
        "name": "Shijiazhuang", 
        "population": 2834942
    }, 
    {
        "country_code": "IN", 
        "elevation": 0, 
        "feature_code": "PPL", 
        "latitude": 26.4478, 
        "longitude": 80.34627, 
        "name": "K\u0101npur", 
        "population": 2823249
    }, 
    {
        "country_code": "UA", 
        "elevation": 0, 
        "feature_code": "PPLC", 
        "latitude": 50.45466, 
        "longitude": 30.5238, 
        "name": "Kiev", 
        "population": 2797553
    }, 
    {
        "country_code": "AO", 
        "elevation": 0, 
        "feature_code": "PPLC", 
        "latitude": -8.83682, 
        "longitude": 13.23432, 
        "name": "Luanda", 
        "population": 2776168
    }, 
    {
        "country_code": "PH", 
        "elevation": 0, 
        "feature_code": "PPLA2", 
        "latitude": 14.6488, 
        "longitude": 121.0509, 
        "name": "Quezon City", 
        "population": 2761720
    }, 
    {
        "country_code": "ET", 
        "elevation": 0, 
        "feature_code": "PPLC", 
        "latitude": 9.02497, 
        "longitude": 38.74689, 
        "name": "Addis Ababa", 
        "population": 2757729
    }, 
    {
        "country_code": "KE", 
        "elevation": 0, 
        "feature_code": "PPLC", 
        "latitude": -1.28333, 
        "longitude": 36.81667, 
        "name": "Nairobi", 
        "population": 2750547
    }, 
    {
        "country_code": "BR", 
        "elevation": 0, 
        "feature_code": "PPLA", 
        "latitude": -12.97111, 
        "longitude": -38.51083, 
        "name": "Salvador", 
        "population": 2711840
    }, 
    {
        "country_code": "IN", 
        "elevation": 0, 
        "feature_code": "PPLA", 
        "latitude": 26.91962, 
        "longitude": 75.78781, 
        "name": "Jaipur", 
        "population": 2711758
    }, 
    {
        "country_code": "TZ", 
        "elevation": 0, 
        "feature_code": "PPLA", 
        "latitude": -6.82349, 
        "longitude": 39.26951, 
        "name": "Dar es Salaam", 
        "population": 2698652
    }, 
    {
        "country_code": "US", 
        "elevation": 179, 
        "feature_code": "PPLA2", 
        "latitude": 41.85003, 
        "longitude": -87.65005, 
        "name": "Chicago", 
        "population": 2695598
    }, 
    {
        "country_code": "CN", 
        "elevation": 0, 
        "feature_code": "PPLA2", 
        "latitude": 36.05701, 
        "longitude": 103.83987, 
        "name": "Lanzhou", 
        "population": 2628426
    }, 
    {
        "country_code": "KR", 
        "elevation": 0, 
        "feature_code": "PPLA", 
        "latitude": 37.45646, 
        "longitude": 126.70515, 
        "name": "Incheon", 
        "population": 2628000
    }, 
    {
        "country_code": "CN", 
        "elevation": 0, 
        "feature_code": "PPLA2", 
        "latitude": 22.92832, 
        "longitude": 112.03954, 
        "name": "Yunfu", 
        "population": 2612800
    }, 
    {
        "country_code": "IN", 
        "elevation": 0, 
        "feature_code": "PPLX", 
        "latitude": 19.03681, 
        "longitude": 73.01582, 
        "name": "Navi Mumbai", 
        "population": 2600000
    }, 
    {
        "country_code": "IQ", 
        "elevation": 0, 
        "feature_code": "PPLA", 
        "latitude": 30.53302, 
        "longitude": 47.79747, 
        "name": "Al Ba\u015frah", 
        "population": 2600000
    }, 
    {
        "country_code": "JP", 
        "elevation": 0, 
        "feature_code": "PPLA", 
        "latitude": 34.69374, 
        "longitude": 135.50218, 
        "name": "\u014csaka-shi", 
        "population": 2592413
    }, 
    {
        "country_code": "SO", 
        "elevation": 0, 
        "feature_code": "PPLC", 
        "latitude": 2.03711, 
        "longitude": 45.34375, 
        "name": "Mogadishu", 
        "population": 2587183
    }, 
    {
        "country_code": "KR", 
        "elevation": 0, 
        "feature_code": "PPLA", 
        "latitude": 35.87028, 
        "longitude": 128.59111, 
        "name": "Daegu", 
        "population": 2566540
    }, 
    {
        "country_code": "PK", 
        "elevation": 0, 
        "feature_code": "PPLA2", 
        "latitude": 31.41667, 
        "longitude": 73.08333, 
        "name": "Faisal\u0101b\u0101d", 
        "population": 2506595
    }, 
    {
        "country_code": "TR", 
        "elevation": 0, 
        "feature_code": "PPLA", 
        "latitude": 38.41273, 
        "longitude": 27.13838, 
        "name": "\u0130zmir", 
        "population": 2500603
    }, 
    {
        "country_code": "SN", 
        "elevation": 0, 
        "feature_code": "PPLC", 
        "latitude": 14.6937, 
        "longitude": -17.44406, 
        "name": "Dakar", 
        "population": 2476400
    }, 
    {
        "country_code": "IN", 
        "elevation": 0, 
        "feature_code": "PPLA", 
        "latitude": 26.83928, 
        "longitude": 80.92313, 
        "name": "Lucknow", 
        "population": 2472011
    }, 
    {
        "country_code": "EG", 
        "elevation": 0, 
        "feature_code": "PPLA", 
        "latitude": 30.00808, 
        "longitude": 31.21093, 
        "name": "Al J\u012bzah", 
        "population": 2443203
    }, 
    {
        "country_code": "BR", 
        "elevation": 0, 
        "feature_code": "PPLA", 
        "latitude": -3.71722, 
        "longitude": -38.54306, 
        "name": "Fortaleza", 
        "population": 2400000
    }, 
    {
        "country_code": "CO", 
        "elevation": 0, 
        "feature_code": "PPLA", 
        "latitude": 3.43722, 
        "longitude": -76.5225, 
        "name": "Cali", 
        "population": 2392877
    }, 
    {
        "country_code": "ID", 
        "elevation": 0, 
        "feature_code": "PPLA", 
        "latitude": -7.24917, 
        "longitude": 112.75083, 
        "name": "Surabaya", 
        "population": 2374658
    }, 
    {
        "country_code": "BR", 
        "elevation": 888, 
        "feature_code": "PPLA", 
        "latitude": -19.92083, 
        "longitude": -43.93778, 
        "name": "Belo Horizonte", 
        "population": 2373224
    }, 
    {
        "country_code": "CN", 
        "elevation": 0, 
        "feature_code": "PPLA", 
        "latitude": 28.68333, 
        "longitude": 115.88333, 
        "name": "Nanchang", 
        "population": 2357839
    }, 
    {
        "country_code": "SN", 
        "elevation": 0, 
        "feature_code": "PPL", 
        "latitude": 14.71331, 
        "longitude": -17.45472, 
        "name": "Grand Dakar", 
        "population": 2352057
    }, 
    {
        "country_code": "IT", 
        "elevation": 20, 
        "feature_code": "PPLC", 
        "latitude": 41.89193, 
        "longitude": 12.51133, 
        "name": "Rome", 
        "population": 2318895
    }, 
    {
        "country_code": "IR", 
        "elevation": 0, 
        "feature_code": "PPLA", 
        "latitude": 36.31559, 
        "longitude": 59.56796, 
        "name": "Mashhad", 
        "population": 2307177
    }, 
    {
        "country_code": "US", 
        "elevation": 15, 
        "feature_code": "PPLA2", 
        "latitude": 40.6501, 
        "longitude": -73.94958, 
        "name": "Brooklyn", 
        "population": 2300664
    }, 
    {
        "country_code": "US", 
        "elevation": 12, 
        "feature_code": "PPLA2", 
        "latitude": 40.68149, 
        "longitude": -73.83652, 
        "name": "Borough of Queens", 
        "population": 2272771
    }, 
    {
        "country_code": "IN", 
        "elevation": 0, 
        "feature_code": "PPLA2", 
        "latitude": 21.14631, 
        "longitude": 79.08491, 
        "name": "Nagpur", 
        "population": 2228018
    }, 
    {
        "country_code": "VE", 
        "elevation": 0, 
        "feature_code": "PPLA", 
        "latitude": 10.63167, 
        "longitude": -71.64056, 
        "name": "Maracaibo", 
        "population": 2225000
    }, 
    {
        "country_code": "BR", 
        "elevation": 0, 
        "feature_code": "PPLC", 
        "latitude": -15.77972, 
        "longitude": -47.92972, 
        "name": "Bras\u00edlia", 
        "population": 2207718
    }, 
    {
        "country_code": "DO", 
        "elevation": 0, 
        "feature_code": "PPLC", 
        "latitude": 18.50012, 
        "longitude": -69.98857, 
        "name": "Santo Domingo", 
        "population": 2201941
    }, 
    {
        "country_code": "JP", 
        "elevation": 0, 
        "feature_code": "PPLA", 
        "latitude": 35.18147, 
        "longitude": 136.90641, 
        "name": "Nagoya-shi", 
        "population": 2191279
    }, 
    {
        "country_code": "AU", 
        "elevation": 0, 
        "feature_code": "PPLA", 
        "latitude": -27.46794, 
        "longitude": 153.02809, 
        "name": "Brisbane", 
        "population": 2189878
    }, 
    {
        "country_code": "CU", 
        "elevation": 0, 
        "feature_code": "PPLC", 
        "latitude": 23.13302, 
        "longitude": -82.38304, 
        "name": "Havana", 
        "population": 2163824
    }, 
    {
        "country_code": "FR", 
        "elevation": 0, 
        "feature_code": "PPLC", 
        "latitude": 48.85341, 
        "longitude": 2.3488, 
        "name": "Paris", 
        "population": 2138551
    }, 
    {
        "country_code": "US", 
        "elevation": 12, 
        "feature_code": "PPLA2", 
        "latitude": 29.76328, 
        "longitude": -95.36327, 
        "name": "Houston", 
        "population": 2099451
    }, 
    {
        "country_code": "IQ", 
        "elevation": 0, 
        "feature_code": "PPLX", 
        "latitude": 36.33091, 
        "longitude": 43.09065, 
        "name": "Al Maw\u015fil al Jad\u012bdah", 
        "population": 2065597
    }, 
    {
        "country_code": "ZA", 
        "elevation": 0, 
        "feature_code": "PPLA", 
        "latitude": -26.20227, 
        "longitude": 28.04363, 
        "name": "Johannesburg", 
        "population": 2026469
    }, 
    {
        "country_code": "HK", 
        "elevation": 0, 
        "feature_code": "PPLA", 
        "latitude": 22.31667, 
        "longitude": 114.18333, 
        "name": "Kowloon", 
        "population": 2019533
    }, 
    {
        "country_code": "IQ", 
        "elevation": 0, 
        "feature_code": "PPLX", 
        "latitude": 30.49528, 
        "longitude": 47.8169, 
        "name": "Al Ba\u015frat al Qad\u012bmah", 
        "population": 2015483
    }, 
    {
        "country_code": "KZ", 
        "elevation": 0, 
        "feature_code": "PPLA", 
        "latitude": 43.25654, 
        "longitude": 76.92848, 
        "name": "Almaty", 
        "population": 2000900
    }, 
    {
        "country_code": "CO", 
        "elevation": 1405, 
        "feature_code": "PPLA", 
        "latitude": 6.25184, 
        "longitude": -75.56359, 
        "name": "Medell\u00edn", 
        "population": 1999979
    }, 
    {
        "country_code": "UZ", 
        "elevation": 0, 
        "feature_code": "PPLC", 
        "latitude": 41.26465, 
        "longitude": 69.21627, 
        "name": "Tashkent", 
        "population": 1978028
    }, 
    {
        "country_code": "DZ", 
        "elevation": 0, 
        "feature_code": "PPLC", 
        "latitude": 36.7525, 
        "longitude": 3.04197, 
        "name": "Algiers", 
        "population": 1977663
    }, 
    {
        "country_code": "SD", 
        "elevation": 0, 
        "feature_code": "PPLC", 
        "latitude": 15.55177, 
        "longitude": 32.53241, 
        "name": "Khartoum", 
        "population": 1974647
    }, 
    {
        "country_code": "GH", 
        "elevation": 0, 
        "feature_code": "PPLC", 
        "latitude": 5.55602, 
        "longitude": -0.1969, 
        "name": "Accra", 
        "population": 1963264
    }, 
    {
        "country_code": "EC", 
        "elevation": 0, 
        "feature_code": "PPLA", 
        "latitude": -2.20584, 
        "longitude": -79.90795, 
        "name": "Guayaquil", 
        "population": 1952029
    }, 
    {
        "country_code": "CN", 
        "elevation": 2149, 
        "feature_code": "PPL", 
        "latitude": 39.6086, 
        "longitude": 109.78157, 
        "name": "Ordos", 
        "population": 1940653
    }, 
    {
        "country_code": "YE", 
        "elevation": 0, 
        "feature_code": "PPLC", 
        "latitude": 15.35472, 
        "longitude": 44.20667, 
        "name": "Sanaa", 
        "population": 1937451
    }, 
    {
        "country_code": "LB", 
        "elevation": 0, 
        "feature_code": "PPLC", 
        "latitude": 33.88894, 
        "longitude": 35.49442, 
        "name": "Beirut", 
        "population": 1916100
    }, 
    {
        "country_code": "AU", 
        "elevation": 0, 
        "feature_code": "PPLA", 
        "latitude": -31.95224, 
        "longitude": 115.8614, 
        "name": "Perth", 
        "population": 1896548
    }, 
    {
        "country_code": "JP", 
        "elevation": 0, 
        "feature_code": "PPLA", 
        "latitude": 43.06417, 
        "longitude": 141.34694, 
        "name": "Sapporo", 
        "population": 1883027
    }, 
    {
        "country_code": "CN", 
        "elevation": 0, 
        "feature_code": "PPL", 
        "latitude": 43.85083, 
        "longitude": 126.56028, 
        "name": "Jilin", 
        "population": 1881977
    }, 
    {
        "country_code": "RO", 
        "elevation": 0, 
        "feature_code": "PPLC", 
        "latitude": 44.43225, 
        "longitude": 26.10626, 
        "name": "Bucharest", 
        "population": 1877155
    }, 
    {
        "country_code": "GN", 
        "elevation": 0, 
        "feature_code": "PPL", 
        "latitude": 9.535, 
        "longitude": -13.68778, 
        "name": "Camayenne", 
        "population": 1871242
    }, 
    {
        "country_code": "CA", 
        "elevation": 0, 
        "feature_code": "PPL", 
        "latitude": 49.24966, 
        "longitude": -123.11934, 
        "name": "Vancouver", 
        "population": 1837969
    }, 
    {
        "country_code": "IN", 
        "elevation": 0, 
        "feature_code": "PPL", 
        "latitude": 22.71792, 
        "longitude": 75.8333, 
        "name": "Indore", 
        "population": 1837041
    }, 
    {
        "country_code": "MX", 
        "elevation": 0, 
        "feature_code": "PPL", 
        "latitude": 19.35738, 
        "longitude": -99.0671, 
        "name": "Iztapalapa", 
        "population": 1820888
    }, 
    {
        "country_code": "MX", 
        "elevation": 0, 
        "feature_code": "PPL", 
        "latitude": 19.61725, 
        "longitude": -99.06601, 
        "name": "Ecatepec", 
        "population": 1806226
    }, 
    {
        "country_code": "GN", 
        "elevation": 0, 
        "feature_code": "PPLC", 
        "latitude": 9.53795, 
        "longitude": -13.67729, 
        "name": "Conakry", 
        "population": 1767200
    }, 
    {
        "country_code": "VE", 
        "elevation": 0, 
        "feature_code": "PPLA", 
        "latitude": 10.24694, 
        "longitude": -67.59583, 
        "name": "Maracay", 
        "population": 1754256
    }, 
    {
        "country_code": "ID", 
        "elevation": 0, 
        "feature_code": "PPLA", 
        "latitude": 3.58333, 
        "longitude": 98.66667, 
        "name": "Medan", 
        "population": 1750971
    }, 
    {
        "country_code": "PK", 
        "elevation": 0, 
        "feature_code": "PPLA2", 
        "latitude": 33.6007, 
        "longitude": 73.0679, 
        "name": "Rawalpindi", 
        "population": 1743101
    }, 
    {
        "country_code": "BY", 
        "elevation": 0, 
        "feature_code": "PPLC", 
        "latitude": 53.9, 
        "longitude": 27.56667, 
        "name": "Minsk", 
        "population": 1742124
    }, 
    {
        "country_code": "HU", 
        "elevation": 0, 
        "feature_code": "PPLC", 
        "latitude": 47.49801, 
        "longitude": 19.03991, 
        "name": "Budapest", 
        "population": 1741041
    }, 
    {
        "country_code": "IQ", 
        "elevation": 0, 
        "feature_code": "PPLA", 
        "latitude": 36.335, 
        "longitude": 43.11889, 
        "name": "Mosul", 
        "population": 1739800
    }, 
    {
        "country_code": "DE", 
        "elevation": 0, 
        "feature_code": "PPLA", 
        "latitude": 53.57532, 
        "longitude": 10.01534, 
        "name": "Hamburg", 
        "population": 1739117
    }, 
    {
        "country_code": "BR", 
        "elevation": 0, 
        "feature_code": "PPLA", 
        "latitude": -25.42778, 
        "longitude": -49.27306, 
        "name": "Curitiba", 
        "population": 1718421
    }, 
    {
        "country_code": "PL", 
        "elevation": 0, 
        "feature_code": "PPLC", 
        "latitude": 52.22977, 
        "longitude": 21.01178, 
        "name": "Warsaw", 
        "population": 1702139
    }, 
    {
        "country_code": "ID", 
        "elevation": 0, 
        "feature_code": "PPLA", 
        "latitude": -6.90389, 
        "longitude": 107.61861, 
        "name": "Bandung", 
        "population": 1699719
    }, 
    {
        "country_code": "ZA", 
        "elevation": 0, 
        "feature_code": "PPL", 
        "latitude": -26.26781, 
        "longitude": 27.85849, 
        "name": "Soweto", 
        "population": 1695047
    }, 
    {
        "country_code": "AT", 
        "elevation": 171, 
        "feature_code": "PPLC", 
        "latitude": 48.20849, 
        "longitude": 16.37208, 
        "name": "Vienna", 
        "population": 1691468
    }, 
    {
        "country_code": "MA", 
        "elevation": 0, 
        "feature_code": "PPLC", 
        "latitude": 34.01325, 
        "longitude": -6.83255, 
        "name": "Rabat", 
        "population": 1655753
    }, 
    {
        "country_code": "MX", 
        "elevation": 0, 
        "feature_code": "PPLA", 
        "latitude": 20.66682, 
        "longitude": -103.39182, 
        "name": "Guadalajara", 
        "population": 1640589
    }, 
    {
        "country_code": "ES", 
        "elevation": 15, 
        "feature_code": "PPLA", 
        "latitude": 41.38879, 
        "longitude": 2.15899, 
        "name": "Barcelona", 
        "population": 1621537
    }, 
    {
        "country_code": "ZA", 
        "elevation": 0, 
        "feature_code": "PPLC", 
        "latitude": -25.74486, 
        "longitude": 28.18783, 
        "name": "Pretoria", 
        "population": 1619438
    }, 
    {
        "country_code": "SY", 
        "elevation": 0, 
        "feature_code": "PPLA", 
        "latitude": 36.20124, 
        "longitude": 37.16117, 
        "name": "Aleppo", 
        "population": 1602264
    }, 
    {
        "country_code": "IN", 
        "elevation": 0, 
        "feature_code": "PPLA", 
        "latitude": 25.60222, 
        "longitude": 85.11936, 
        "name": "Patna", 
        "population": 1599920
    }, 
    {
        "country_code": "IN", 
        "elevation": 0, 
        "feature_code": "PPLA", 
        "latitude": 23.25469, 
        "longitude": 77.40289, 
        "name": "Bhopal", 
        "population": 1599914
    }, 
    {
        "country_code": "BR", 
        "elevation": 0, 
        "feature_code": "PPLA", 
        "latitude": -3.10194, 
        "longitude": -60.025, 
        "name": "Manaus", 
        "population": 1598210
    }, 
    {
        "country_code": "CN", 
        "elevation": 0, 
        "feature_code": "PPL", 
        "latitude": 32.12278, 
        "longitude": 114.06556, 
        "name": "Xinyang", 
        "population": 1590668
    }, 
    {
        "country_code": "MX", 
        "elevation": 0, 
        "feature_code": "PPLA", 
        "latitude": 19.04334, 
        "longitude": -98.20193, 
        "name": "Puebla", 
        "population": 1590256
    }, 
    {
        "country_code": "NG", 
        "elevation": 0, 
        "feature_code": "PPLA", 
        "latitude": 10.52224, 
        "longitude": 7.43828, 
        "name": "Kaduna", 
        "population": 1582102
    }, 
    {
        "country_code": "KH", 
        "elevation": 0, 
        "feature_code": "PPLC", 
        "latitude": 11.56245, 
        "longitude": 104.91601, 
        "name": "Phnom Penh", 
        "population": 1573544
    }, 
    {
        "country_code": "SY", 
        "elevation": 0, 
        "feature_code": "PPLC", 
        "latitude": 33.5102, 
        "longitude": 36.29128, 
        "name": "Damascus", 
        "population": 1569394
    }, 
    {
        "country_code": "IR", 
        "elevation": 0, 
        "feature_code": "PPLA", 
        "latitude": 32.65246, 
        "longitude": 51.67462, 
        "name": "Isfahan", 
        "population": 1547164
    }, 
    {
        "country_code": "IN", 
        "elevation": 0, 
        "feature_code": "PPL", 
        "latitude": 30.90015, 
        "longitude": 75.85229, 
        "name": "Ludhi\u0101na", 
        "population": 1545368
    }, 
    {
        "country_code": "ZW", 
        "elevation": 0, 
        "feature_code": "PPLC", 
        "latitude": -17.82772, 
        "longitude": 31.05337, 
        "name": "Harare", 
        "population": 1542813
    }, 
    {
        "country_code": "JP", 
        "elevation": 0, 
        "feature_code": "PPLA", 
        "latitude": 34.6913, 
        "longitude": 135.183, 
        "name": "Kobe", 
        "population": 1528478
    }, 
    {
        "country_code": "US", 
        "elevation": 12, 
        "feature_code": "PPLA2", 
        "latitude": 39.95234, 
        "longitude": -75.16379, 
        "name": "Philadelphia", 
        "population": 1526006
    }, 
    {
        "country_code": "ID", 
        "elevation": 0, 
        "feature_code": "PPL", 
        "latitude": -6.2349, 
        "longitude": 106.9896, 
        "name": "Bekasi", 
        "population": 1520119
    }, 
    {
        "country_code": "TW", 
        "elevation": 0, 
        "feature_code": "PPLA", 
        "latitude": 22.61626, 
        "longitude": 120.31333, 
        "name": "Kaohsiung", 
        "population": 1519711
    }, 
    {
        "country_code": "MX", 
        "elevation": 0, 
        "feature_code": "PPL", 
        "latitude": 31.73333, 
        "longitude": -106.48333, 
        "name": "Ciudad Ju\u00e1rez", 
        "population": 1512354
    }, 
    {
        "country_code": "US", 
        "elevation": 35, 
        "feature_code": "PPLA2", 
        "latitude": 40.78343, 
        "longitude": -73.96625, 
        "name": "Manhattan", 
        "population": 1487536
    }, 
    {
        "country_code": "PY", 
        "elevation": 0, 
        "feature_code": "PPLC", 
        "latitude": -25.30066, 
        "longitude": -57.63591, 
        "name": "Asunci\u00f3n", 
        "population": 1482200
    }, 
    {
        "country_code": "BR", 
        "elevation": 0, 
        "feature_code": "PPLA", 
        "latitude": -8.05389, 
        "longitude": -34.88111, 
        "name": "Recife", 
        "population": 1478098
    }, 
    {
        "country_code": "KR", 
        "elevation": 0, 
        "feature_code": "PPLA", 
        "latitude": 36.32139, 
        "longitude": 127.41972, 
        "name": "Daejeon", 
        "population": 1475221
    }, 
    {
        "country_code": "GH", 
        "elevation": 0, 
        "feature_code": "PPLA", 
        "latitude": 6.68848, 
        "longitude": -1.62443, 
        "name": "Kumasi", 
        "population": 1468609
    }, 
    {
        "country_code": "MY", 
        "elevation": 0, 
        "feature_code": "PPLA", 
        "latitude": 6.13328, 
        "longitude": 102.2386, 
        "name": "Kota Bharu", 
        "population": 1459994
    }, 
    {
        "country_code": "JP", 
        "elevation": 0, 
        "feature_code": "PPLA", 
        "latitude": 35.02107, 
        "longitude": 135.75385, 
        "name": "Kyoto", 
        "population": 1459640
    }, 
    {
        "country_code": "MY", 
        "elevation": 0, 
        "feature_code": "PPLC", 
        "latitude": 3.1412, 
        "longitude": 101.68653, 
        "name": "Kuala Lumpur", 
        "population": 1453975
    }, 
    {
        "country_code": "IR", 
        "elevation": 0, 
        "feature_code": "PPLA", 
        "latitude": 35.83266, 
        "longitude": 50.99154, 
        "name": "Karaj", 
        "population": 1448075
    }, 
    {
        "country_code": "US", 
        "elevation": 331, 
        "feature_code": "PPLA", 
        "latitude": 33.44838, 
        "longitude": -112.07404, 
        "name": "Phoenix", 
        "population": 1445632
    }, 
    {
        "country_code": "NP", 
        "elevation": 1317, 
        "feature_code": "PPLC", 
        "latitude": 27.70169, 
        "longitude": 85.3206, 
        "name": "Kathmandu", 
        "population": 1442271
    }, 
    {
        "country_code": "ID", 
        "elevation": 0, 
        "feature_code": "PPLA", 
        "latitude": -2.91673, 
        "longitude": 104.7458, 
        "name": "Palembang", 
        "population": 1441500
    }, 
    {
        "country_code": "PK", 
        "elevation": 0, 
        "feature_code": "PPLA2", 
        "latitude": 30.19556, 
        "longitude": 71.47528, 
        "name": "Mult\u0101n", 
        "population": 1437230
    }, 
    {
        "country_code": "VN", 
        "elevation": 0, 
        "feature_code": "PPLC", 
        "latitude": 21.0245, 
        "longitude": 105.84117, 
        "name": "Hanoi", 
        "population": 1431270
    }, 
    {
        "country_code": "UA", 
        "elevation": 0, 
        "feature_code": "PPLA", 
        "latitude": 49.98081, 
        "longitude": 36.25272, 
        "name": "Kharkiv", 
        "population": 1430885
    }, 
    {
        "country_code": "IN", 
        "elevation": 0, 
        "feature_code": "PPLA2", 
        "latitude": 27.18333, 
        "longitude": 78.01667, 
        "name": "\u0100gra", 
        "population": 1430055
    }, 
    {
        "country_code": "AR", 
        "elevation": 0, 
        "feature_code": "PPLA", 
        "latitude": -31.4135, 
        "longitude": -64.18105, 
        "name": "C\u00f3rdoba", 
        "population": 1428214
    }, 
    {
        "country_code": "IR", 
        "elevation": 0, 
        "feature_code": "PPLA", 
        "latitude": 38.08, 
        "longitude": 46.2919, 
        "name": "Tabr\u012bz", 
        "population": 1424641
    }, 
    {
        "country_code": "RU", 
        "elevation": 0, 
        "feature_code": "PPLA", 
        "latitude": 55.0415, 
        "longitude": 82.9346, 
        "name": "Novosibirsk", 
        "population": 1419007
    }, 
    {
        "country_code": "KR", 
        "elevation": 0, 
        "feature_code": "PPLA", 
        "latitude": 35.15472, 
        "longitude": 126.91556, 
        "name": "Gwangju", 
        "population": 1416938
    }, 
    {
        "country_code": "TR", 
        "elevation": 0, 
        "feature_code": "PPLA", 
        "latitude": 40.19266, 
        "longitude": 29.08403, 
        "name": "Bursa", 
        "population": 1412701
    }, 
    {
        "country_code": "IN", 
        "elevation": 0, 
        "feature_code": "PPL", 
        "latitude": 22.2994, 
        "longitude": 73.20812, 
        "name": "Vadodara", 
        "population": 1409476
    }, 
    {
        "country_code": "BR", 
        "elevation": 0, 
        "feature_code": "PPLA", 
        "latitude": -1.45583, 
        "longitude": -48.50444, 
        "name": "Bel\u00e9m", 
        "population": 1407737
    }, 
    {
        "country_code": "CN", 
        "elevation": 0, 
        "feature_code": "PPL", 
        "latitude": 41.85583, 
        "longitude": 123.92333, 
        "name": "Fushun", 
        "population": 1400646
    }, 
    {
        "country_code": "EC", 
        "elevation": 0, 
        "feature_code": "PPLC", 
        "latitude": -0.22985, 
        "longitude": -78.52495, 
        "name": "Quito", 
        "population": 1399814
    }, 
    {
        "country_code": "JP", 
        "elevation": 0, 
        "feature_code": "PPLA", 
        "latitude": 33.60639, 
        "longitude": 130.41806, 
        "name": "Fukuoka-shi", 
        "population": 1392289
    }, 
    {
        "country_code": "MG", 
        "elevation": 0, 
        "feature_code": "PPLC", 
        "latitude": -18.91368, 
        "longitude": 47.53613, 
        "name": "Antananarivo", 
        "population": 1391433
    }, 
    {
        "country_code": "CN", 
        "elevation": 0, 
        "feature_code": "PPL", 
        "latitude": 34.68361, 
        "longitude": 112.45361, 
        "name": "Luoyang", 
        "population": 1390581
    }, 
    {
        "country_code": "PK", 
        "elevation": 0, 
        "feature_code": "PPLA2", 
        "latitude": 25.39242, 
        "longitude": 68.37366, 
        "name": "Hyderabad", 
        "population": 1386330
    }, 
    {
        "country_code": "US", 
        "elevation": 23, 
        "feature_code": "PPLA2", 
        "latitude": 40.84985, 
        "longitude": -73.86641, 
        "name": "The Bronx", 
        "population": 1385108
    }, 
    {
        "country_code": "VE", 
        "elevation": 0, 
        "feature_code": "PPLA", 
        "latitude": 10.16202, 
        "longitude": -68.00765, 
        "name": "Valencia", 
        "population": 1385083
    }, 
    {
        "country_code": "PK", 
        "elevation": 0, 
        "feature_code": "PPLA2", 
        "latitude": 32.16167, 
        "longitude": 74.18831, 
        "name": "Gujr\u0101nw\u0101la", 
        "population": 1384471
    }, 
    {
        "country_code": "CO", 
        "elevation": 0, 
        "feature_code": "PPLA", 
        "latitude": 10.96854, 
        "longitude": -74.78132, 
        "name": "Barranquilla", 
        "population": 1380425
    }, 
    {
        "country_code": "CN", 
        "elevation": 0, 
        "feature_code": "PPLA3", 
        "latitude": 28.15861, 
        "longitude": 113.62709, 
        "name": "Guankou", 
        "population": 1380000
    }, 
    {
        "country_code": "MX", 
        "elevation": 0, 
        "feature_code": "PPL", 
        "latitude": 32.5027, 
        "longitude": -117.00371, 
        "name": "Tijuana", 
        "population": 1376457
    }, 
    {
        "country_code": "CD", 
        "elevation": 0, 
        "feature_code": "PPLA", 
        "latitude": -11.66089, 
        "longitude": 27.47938, 
        "name": "Lubumbashi", 
        "population": 1373770
    }, 
    {
        "country_code": "BR", 
        "elevation": 0, 
        "feature_code": "PPLA", 
        "latitude": -30.03306, 
        "longitude": -51.23, 
        "name": "Porto Alegre", 
        "population": 1372741
    }, 
    {
        "country_code": "ID", 
        "elevation": 0, 
        "feature_code": "PPL", 
        "latitude": -6.17806, 
        "longitude": 106.63, 
        "name": "Tangerang", 
        "population": 1372124
    }, 
    {
        "country_code": "BO", 
        "elevation": 0, 
        "feature_code": "PPLA", 
        "latitude": -17.78629, 
        "longitude": -63.18117, 
        "name": "Santa Cruz de la Sierra", 
        "population": 1364389
    }, 
    {
        "country_code": "CN", 
        "elevation": 0, 
        "feature_code": "PPL", 
        "latitude": 36.60056, 
        "longitude": 114.46778, 
        "name": "Handan", 
        "population": 1358318
    }, 
    {
        "country_code": "UG", 
        "elevation": 0, 
        "feature_code": "PPLC", 
        "latitude": 0.31628, 
        "longitude": 32.58219, 
        "name": "Kampala", 
        "population": 1353189
    }, 
    {
        "country_code": "RU", 
        "elevation": 0, 
        "feature_code": "PPLA", 
        "latitude": 56.8519, 
        "longitude": 60.6122, 
        "name": "Yekaterinburg", 
        "population": 1349772
    }, 
    {
        "country_code": "BD", 
        "elevation": 0, 
        "feature_code": "PPLA", 
        "latitude": 22.80978, 
        "longitude": 89.56439, 
        "name": "Khulna", 
        "population": 1342339
    }, 
    {
        "country_code": "CM", 
        "elevation": 0, 
        "feature_code": "PPLA", 
        "latitude": 4.04827, 
        "longitude": 9.70428, 
        "name": "Douala", 
        "population": 1338082
    }, 
    {
        "country_code": "US", 
        "elevation": 198, 
        "feature_code": "PPLA2", 
        "latitude": 29.42412, 
        "longitude": -98.49363, 
        "name": "San Antonio", 
        "population": 1327407
    }, 
    {
        "country_code": "IN", 
        "elevation": 0, 
        "feature_code": "PPL", 
        "latitude": 29.44702, 
        "longitude": 75.67181, 
        "name": "Gorakhpur", 
        "population": 1324570
    }, 
    {
        "country_code": "SA", 
        "elevation": 0, 
        "feature_code": "PPLA", 
        "latitude": 21.42664, 
        "longitude": 39.82563, 
        "name": "Mecca", 
        "population": 1323624
    }, 
    {
        "country_code": "ID", 
        "elevation": 0, 
        "feature_code": "PPLA", 
        "latitude": -5.14, 
        "longitude": 119.4221, 
        "name": "Makassar", 
        "population": 1321717
    }, 
    {
        "country_code": "US", 
        "elevation": 20, 
        "feature_code": "PPLA2", 
        "latitude": 32.71533, 
        "longitude": -117.15726, 
        "name": "San Diego", 
        "population": 1307402
    }, 
    {
        "country_code": "JP", 
        "elevation": 0, 
        "feature_code": "PPL", 
        "latitude": 35.52056, 
        "longitude": 139.71722, 
        "name": "Kawasaki", 
        "population": 1306785
    }, 
    {
        "country_code": "ID", 
        "elevation": 0, 
        "feature_code": "PPL", 
        "latitude": -6.28862, 
        "longitude": 106.71789, 
        "name": "South Tangerang", 
        "population": 1303569
    }, 
    {
        "country_code": "CN", 
        "elevation": 0, 
        "feature_code": "PPL", 
        "latitude": 40.65222, 
        "longitude": 109.82222, 
        "name": "Baotou", 
        "population": 1301768
    }, 
    {
        "country_code": "SA", 
        "elevation": 0, 
        "feature_code": "PPLA", 
        "latitude": 24.46861, 
        "longitude": 39.61417, 
        "name": "Medina", 
        "population": 1300000
    }, 
    {
        "country_code": "CM", 
        "elevation": 0, 
        "feature_code": "PPLC", 
        "latitude": 3.86667, 
        "longitude": 11.51667, 
        "name": "Yaound\u00e9", 
        "population": 1299369
    }, 
    {
        "country_code": "ML", 
        "elevation": 0, 
        "feature_code": "PPLC", 
        "latitude": 12.65, 
        "longitude": -8.0, 
        "name": "Bamako", 
        "population": 1297281
    }, 
    {
        "country_code": "IN", 
        "elevation": 0, 
        "feature_code": "PPLA2", 
        "latitude": 19.99727, 
        "longitude": 73.79096, 
        "name": "Nashik", 
        "population": 1289497
    }, 
    {
        "country_code": "ID", 
        "elevation": 0, 
        "feature_code": "PPLA", 
        "latitude": -6.9932, 
        "longitude": 110.4203, 
        "name": "Semarang", 
        "population": 1288084
    }, 
    {
        "country_code": "CG", 
        "elevation": 0, 
        "feature_code": "PPLC", 
        "latitude": -4.26613, 
        "longitude": 15.28318, 
        "name": "Brazzaville", 
        "population": 1284609
    }, 
    {
        "country_code": "IN", 
        "elevation": 0, 
        "feature_code": "PPL", 
        "latitude": 18.62292, 
        "longitude": 73.80696, 
        "name": "Pimpri", 
        "population": 1284606
    }, 
    {
        "country_code": "RU", 
        "elevation": 0, 
        "feature_code": "PPLA", 
        "latitude": 56.32867, 
        "longitude": 44.00205, 
        "name": "Nizhniy Novgorod", 
        "population": 1284164
    }, 
    {
        "country_code": "JO", 
        "elevation": 0, 
        "feature_code": "PPLC", 
        "latitude": 31.95522, 
        "longitude": 35.94503, 
        "name": "Amman", 
        "population": 1275857
    }, 
    {
        "country_code": "PH", 
        "elevation": 0, 
        "feature_code": "PPL", 
        "latitude": 7.20417, 
        "longitude": 124.43972, 
        "name": "Budta", 
        "population": 1273715
    }, 
    {
        "country_code": "RS", 
        "elevation": 0, 
        "feature_code": "PPLC", 
        "latitude": 44.80401, 
        "longitude": 20.46513, 
        "name": "Belgrade", 
        "population": 1273651
    }, 
    {
        "country_code": "UY", 
        "elevation": 0, 
        "feature_code": "PPLC", 
        "latitude": -34.90328, 
        "longitude": -56.18816, 
        "name": "Montevideo", 
        "population": 1270737
    }, 
    {
        "country_code": "ZM", 
        "elevation": 0, 
        "feature_code": "PPLC", 
        "latitude": -15.40669, 
        "longitude": 28.28713, 
        "name": "Lusaka", 
        "population": 1267440
    }, 
    {
        "country_code": "IN", 
        "elevation": 0, 
        "feature_code": "PPL", 
        "latitude": 19.2437, 
        "longitude": 73.13554, 
        "name": "Kaly\u0101n", 
        "population": 1262255
    }, 
    {
        "country_code": "IN", 
        "elevation": 0, 
        "feature_code": "PPL", 
        "latitude": 19.19704, 
        "longitude": 72.96356, 
        "name": "Th\u0101ne", 
        "population": 1261517
    }, 
    {
        "country_code": "DE", 
        "elevation": 0, 
        "feature_code": "PPLA", 
        "latitude": 48.13743, 
        "longitude": 11.57549, 
        "name": "Munich", 
        "population": 1260391
    }, 
    {
        "country_code": "SE", 
        "elevation": 0, 
        "feature_code": "PPLC", 
        "latitude": 59.33258, 
        "longitude": 18.0649, 
        "name": "Stockholm", 
        "population": 1253309
    }, 
    {
        "country_code": "LB", 
        "elevation": 0, 
        "feature_code": "PPLX", 
        "latitude": 33.9, 
        "longitude": 35.48333, 
        "name": "Ra\u2019s Bayr\u016bt", 
        "population": 1251739
    }, 
    {
        "country_code": "IR", 
        "elevation": 0, 
        "feature_code": "PPLA", 
        "latitude": 29.61031, 
        "longitude": 52.53114, 
        "name": "Shiraz", 
        "population": 1249942
    }, 
    {
        "country_code": "TR", 
        "elevation": 0, 
        "feature_code": "PPLA", 
        "latitude": 37.00167, 
        "longitude": 35.32889, 
        "name": "Adana", 
        "population": 1248988
    }, 
    {
        "country_code": "KR", 
        "elevation": 0, 
        "feature_code": "PPLA", 
        "latitude": 37.29111, 
        "longitude": 127.00889, 
        "name": "Suwon-si", 
        "population": 1242724
    }, 
    {
        "country_code": "IT", 
        "elevation": 122, 
        "feature_code": "PPLA", 
        "latitude": 45.46427, 
        "longitude": 9.18951, 
        "name": "Milano", 
        "population": 1236837
    }, 
    {
        "country_code": "HT", 
        "elevation": 0, 
        "feature_code": "PPLC", 
        "latitude": 18.53917, 
        "longitude": -72.335, 
        "name": "Port-au-Prince", 
        "population": 1234742
    }, 
    {
        "country_code": "MX", 
        "elevation": 0, 
        "feature_code": "PPL", 
        "latitude": 19.40061, 
        "longitude": -99.01483, 
        "name": "Ciudad Nezahualcoyotl", 
        "population": 1232220
    }, 
    {
        "country_code": "AU", 
        "elevation": 0, 
        "feature_code": "PPLA", 
        "latitude": -34.92866, 
        "longitude": 138.59863, 
        "name": "Adelaide", 
        "population": 1225235
    }, 
    {
        "country_code": "IN", 
        "elevation": 0, 
        "feature_code": "PPL", 
        "latitude": 28.97155, 
        "longitude": 77.71934, 
        "name": "Meerut", 
        "population": 1223184
    }, 
    {
        "country_code": "IN", 
        "elevation": 0, 
        "feature_code": "PPLA2", 
        "latitude": 19.23114, 
        "longitude": 82.54826, 
        "name": "Nowrangapur", 
        "population": 1220946
    }, 
    {
        "country_code": "IN", 
        "elevation": 0, 
        "feature_code": "PPL", 
        "latitude": 28.41252, 
        "longitude": 77.31977, 
        "name": "Far\u012bd\u0101b\u0101d", 
        "population": 1220229
    }, 
    {
        "country_code": "PK", 
        "elevation": 0, 
        "feature_code": "PPLA", 
        "latitude": 34.008, 
        "longitude": 71.57849, 
        "name": "Peshawar", 
        "population": 1218773
    }, 
    {
        "country_code": "PH", 
        "elevation": 0, 
        "feature_code": "PPLA", 
        "latitude": 7.07306, 
        "longitude": 125.61278, 
        "name": "Davao", 
        "population": 1212504
    }, 
    {
        "country_code": "MM", 
        "elevation": 0, 
        "feature_code": "PPLA", 
        "latitude": 21.97473, 
        "longitude": 96.08359, 
        "name": "Mandalay", 
        "population": 1208099
    }, 
    {
        "country_code": "CN", 
        "elevation": 0, 
        "feature_code": "PPL", 
        "latitude": 29.37455, 
        "longitude": 113.09481, 
        "name": "Yueyang", 
        "population": 1200000
    }, 
    {
        "country_code": "DO", 
        "elevation": 0, 
        "feature_code": "PPLA", 
        "latitude": 19.4517, 
        "longitude": -70.69703, 
        "name": "Santiago de los Caballeros", 
        "population": 1200000
    }, 
    {
        "country_code": "SD", 
        "elevation": 0, 
        "feature_code": "PPL", 
        "latitude": 15.64453, 
        "longitude": 32.47773, 
        "name": "Omdurman", 
        "population": 1200000
    }, 
    {
        "country_code": "CN", 
        "elevation": 0, 
        "feature_code": "PPL", 
        "latitude": 41.12361, 
        "longitude": 122.99, 
        "name": "Anshan", 
        "population": 1199275
    }, 
    {
        "country_code": "CN", 
        "elevation": 0, 
        "feature_code": "PPLA3", 
        "latitude": 34.18045, 
        "longitude": 117.15707, 
        "name": "Tongshan", 
        "population": 1199193
    }, 
    {
        "country_code": "IN", 
        "elevation": 0, 
        "feature_code": "PPL", 
        "latitude": 28.66249, 
        "longitude": 77.43777, 
        "name": "Gh\u0101zi\u0101b\u0101d", 
        "population": 1199191
    }, 
    {
        "country_code": "ID", 
        "elevation": 0, 
        "feature_code": "PPL", 
        "latitude": -6.4, 
        "longitude": 106.81861, 
        "name": "Depok", 
        "population": 1198129
    }, 
    {
        "country_code": "US", 
        "elevation": 128, 
        "feature_code": "PPLA2", 
        "latitude": 32.78306, 
        "longitude": -96.80667, 
        "name": "Dallas", 
        "population": 1197816
    }, 
    {
        "country_code": "JP", 
        "elevation": 0, 
        "feature_code": "PPLA", 
        "latitude": 35.90807, 
        "longitude": 139.65657, 
        "name": "Saitama", 
        "population": 1193350
    }, 
    {
        "country_code": "MX", 
        "elevation": 0, 
        "feature_code": "PPLX", 
        "latitude": 19.49016, 
        "longitude": -99.10978, 
        "name": "Gustavo A. Madero", 
        "population": 1193161
    }, 
    {
        "country_code": "IN", 
        "elevation": 0, 
        "feature_code": "PPL", 
        "latitude": 19.21667, 
        "longitude": 73.08333, 
        "name": "Dombivli", 
        "population": 1193000
    }, 
    {
        "country_code": "MZ", 
        "elevation": 0, 
        "feature_code": "PPLC", 
        "latitude": -25.96553, 
        "longitude": 32.58322, 
        "name": "Maputo", 
        "population": 1191613
    }, 
    {
        "country_code": "MX", 
        "elevation": 0, 
        "feature_code": "PPL", 
        "latitude": 22.8694, 
        "longitude": -98.75886, 
        "name": "Gustavo A. Madero", 
        "population": 1185772
    }, 
    {
        "country_code": "CN", 
        "elevation": 0, 
        "feature_code": "PPLA", 
        "latitude": 26.06139, 
        "longitude": 119.30611, 
        "name": "Fuzhou", 
        "population": 1179720
    }, 
    {
        "country_code": "IN", 
        "elevation": 0, 
        "feature_code": "PPL", 
        "latitude": 22.29161, 
        "longitude": 70.79322, 
        "name": "R\u0101jkot", 
        "population": 1177362
    }, 
    {
        "country_code": "AR", 
        "elevation": 0, 
        "feature_code": "PPLA2", 
        "latitude": -32.94682, 
        "longitude": -60.63932, 
        "name": "Rosario", 
        "population": 1173533
    }, 
    {
        "country_code": "CN", 
        "elevation": 0, 
        "feature_code": "PPLA", 
        "latitude": 26.58333, 
        "longitude": 106.71667, 
        "name": "Guiyang", 
        "population": 1171633
    }, 
    {
        "country_code": "BR", 
        "elevation": 0, 
        "feature_code": "PPLA", 
        "latitude": -16.67861, 
        "longitude": -49.25389, 
        "name": "Goi\u00e2nia", 
        "population": 1171195
    }, 
    {
        "country_code": "BR", 
        "elevation": 0, 
        "feature_code": "PPL", 
        "latitude": -23.46278, 
        "longitude": -46.53333, 
        "name": "Guarulhos", 
        "population": 1169577
    }, 
    {
        "country_code": "CZ", 
        "elevation": 0, 
        "feature_code": "PPLC", 
        "latitude": 50.08804, 
        "longitude": 14.42076, 
        "name": "Prague", 
        "population": 1165581
    }, 
    {
        "country_code": "IN", 
        "elevation": 0, 
        "feature_code": "PPL", 
        "latitude": 25.31668, 
        "longitude": 83.01042, 
        "name": "Varanasi", 
        "population": 1164404
    }, 
    {
        "country_code": "DK", 
        "elevation": 0, 
        "feature_code": "PPLC", 
        "latitude": 55.67594, 
        "longitude": 12.56553, 
        "name": "Copenhagen", 
        "population": 1153615
    }, 
    {
        "country_code": "BG", 
        "elevation": 0, 
        "feature_code": "PPLC", 
        "latitude": 42.69751, 
        "longitude": 23.32415, 
        "name": "Sofia", 
        "population": 1152556
    }, 
    {
        "country_code": "LY", 
        "elevation": 0, 
        "feature_code": "PPLC", 
        "latitude": 32.87519, 
        "longitude": 13.18746, 
        "name": "Tripoli", 
        "population": 1150989
    }, 
    {
        "country_code": "NG", 
        "elevation": 0, 
        "feature_code": "PPLA", 
        "latitude": 4.77742, 
        "longitude": 7.0134, 
        "name": "Port Harcourt", 
        "population": 1148665
    }, 
    {
        "country_code": "JP", 
        "elevation": 0, 
        "feature_code": "PPLA", 
        "latitude": 34.39627, 
        "longitude": 132.45937, 
        "name": "Hiroshima-shi", 
        "population": 1143841
    }, 
    {
        "country_code": "CN", 
        "elevation": 0, 
        "feature_code": "PPL", 
        "latitude": 26.86879, 
        "longitude": 100.22072, 
        "name": "Lijiang", 
        "population": 1137600
    }, 
    {
        "country_code": "AE", 
        "elevation": 0, 
        "feature_code": "PPLA", 
        "latitude": 25.25817, 
        "longitude": 55.30472, 
        "name": "Dubai", 
        "population": 1137347
    }, 
    {
        "country_code": "RU", 
        "elevation": 0, 
        "feature_code": "PPLA", 
        "latitude": 53.20006, 
        "longitude": 50.15, 
        "name": "Samara", 
        "population": 1134730
    }, 
    {
        "country_code": "RU", 
        "elevation": 0, 
        "feature_code": "PPLA", 
        "latitude": 54.99244, 
        "longitude": 73.36859, 
        "name": "Omsk", 
        "population": 1129281
    }, 
    {
        "country_code": "NG", 
        "elevation": 0, 
        "feature_code": "PPLA", 
        "latitude": 6.33504, 
        "longitude": 5.62749, 
        "name": "Benin City", 
        "population": 1125058
    }, 
    {
        "country_code": "MX", 
        "elevation": 0, 
        "feature_code": "PPLA", 
        "latitude": 25.67506, 
        "longitude": -100.31846, 
        "name": "Monterrey", 
        "population": 1122874
    }, 
    {
        "country_code": "PH", 
        "elevation": 0, 
        "feature_code": "PPL", 
        "latitude": 7.16083, 
        "longitude": 124.475, 
        "name": "Malingao", 
        "population": 1121974
    }, 
    {
        "country_code": "AZ", 
        "elevation": 0, 
        "feature_code": "PPLC", 
        "latitude": 40.37767, 
        "longitude": 49.89201, 
        "name": "Baku", 
        "population": 1116513
    }, 
    {
        "country_code": "MX", 
        "elevation": 0, 
        "feature_code": "PPL", 
        "latitude": 21.13052, 
        "longitude": -101.671, 
        "name": "Le\u00f3n", 
        "population": 1114626
    }, 
    {
        "country_code": "NG", 
        "elevation": 0, 
        "feature_code": "PPLA", 
        "latitude": 11.84692, 
        "longitude": 13.15712, 
        "name": "Maiduguri", 
        "population": 1112449
    }, 
    {
        "country_code": "RU", 
        "elevation": 0, 
        "feature_code": "PPLA", 
        "latitude": 55.78874, 
        "longitude": 49.12214, 
        "name": "Kazan", 
        "population": 1104738
    }, 
    {
        "country_code": "AM", 
        "elevation": 0, 
        "feature_code": "PPLC", 
        "latitude": 40.18111, 
        "longitude": 44.51361, 
        "name": "Yerevan", 
        "population": 1093485
    }, 
    {
        "country_code": "IN", 
        "elevation": 0, 
        "feature_code": "PPL", 
        "latitude": 31.63661, 
        "longitude": 74.87476, 
        "name": "Amritsar", 
        "population": 1092450
    }, 
    {
        "country_code": "BF", 
        "elevation": 0, 
        "feature_code": "PPLC", 
        "latitude": 12.36566, 
        "longitude": -1.53388, 
        "name": "Ouagadougou", 
        "population": 1086505
    }, 
    {
        "country_code": "JP", 
        "elevation": 0, 
        "feature_code": "PPL", 
        "latitude": 35.88333, 
        "longitude": 139.63333, 
        "name": "Yono", 
        "population": 1077730
    }, 
    {
        "country_code": "RU", 
        "elevation": 0, 
        "feature_code": "PPLA", 
        "latitude": 47.23135, 
        "longitude": 39.72328, 
        "name": "Rostov-na-Donu", 
        "population": 1074482
    }, 
    {
        "country_code": "IN", 
        "elevation": 0, 
        "feature_code": "PPL", 
        "latitude": 25.44894, 
        "longitude": 81.83328, 
        "name": "Allah\u0101b\u0101d", 
        "population": 1073438
    }, 
    {
        "country_code": "KR", 
        "elevation": 0, 
        "feature_code": "PPL", 
        "latitude": 37.65639, 
        "longitude": 126.835, 
        "name": "Goyang-si", 
        "population": 1073069
    }, 
    {
        "country_code": "TR", 
        "elevation": 0, 
        "feature_code": "PPLA", 
        "latitude": 37.05944, 
        "longitude": 37.3825, 
        "name": "Gaziantep", 
        "population": 1065975
    }, 
    {
        "country_code": "IN", 
        "elevation": 0, 
        "feature_code": "PPLA2", 
        "latitude": 17.68009, 
        "longitude": 83.20161, 
        "name": "Visakhapatnam", 
        "population": 1063178
    }, 
    {
        "country_code": "JP", 
        "elevation": 0, 
        "feature_code": "PPLA", 
        "latitude": 38.26889, 
        "longitude": 140.87194, 
        "name": "Sendai-shi", 
        "population": 1063103
    }, 
    {
        "country_code": "JP", 
        "elevation": 0, 
        "feature_code": "PPL", 
        "latitude": 38.25759, 
        "longitude": 140.8667, 
        "name": "Sendai", 
        "population": 1063103
    }, 
    {
        "country_code": "RU", 
        "elevation": 0, 
        "feature_code": "PPLA", 
        "latitude": 55.15402, 
        "longitude": 61.42915, 
        "name": "Chelyabinsk", 
        "population": 1062919
    }, 
    {
        "country_code": "CN", 
        "elevation": 0, 
        "feature_code": "PPL", 
        "latitude": 40.09361, 
        "longitude": 113.29139, 
        "name": "Datong", 
        "population": 1052678
    }, 
    {
        "country_code": "GE", 
        "elevation": 0, 
        "feature_code": "PPLC", 
        "latitude": 41.69411, 
        "longitude": 44.83368, 
        "name": "Tbilisi", 
        "population": 1049498
    }, 
    {
        "country_code": "CN", 
        "elevation": 0, 
        "feature_code": "PPL", 
        "latitude": 31.64615, 
        "longitude": 120.74221, 
        "name": "Changshu City", 
        "population": 1047700
    }, 
    {
        "country_code": "TW", 
        "elevation": 0, 
        "feature_code": "PPLA2", 
        "latitude": 24.1469, 
        "longitude": 120.6839, 
        "name": "Taichung", 
        "population": 1040725
    }, 
    {
        "country_code": "IN", 
        "elevation": 0, 
        "feature_code": "PPL", 
        "latitude": 10.01531, 
        "longitude": 77.482, 
        "name": "Teni", 
        "population": 1034724
    }, 
    {
        "country_code": "CN", 
        "elevation": 0, 
        "feature_code": "PPLA3", 
        "latitude": 34.33778, 
        "longitude": 108.70261, 
        "name": "Xianyang", 
        "population": 1034081
    }, 
    {
        "country_code": "RU", 
        "elevation": 0, 
        "feature_code": "PPLA", 
        "latitude": 54.74306, 
        "longitude": 55.96779, 
        "name": "Ufa", 
        "population": 1033338
    }, 
    {
        "country_code": "UA", 
        "elevation": 0, 
        "feature_code": "PPLA", 
        "latitude": 48.45, 
        "longitude": 34.98333, 
        "name": "Dnipropetrovsk", 
        "population": 1032822
    }, 
    {
        "country_code": "KR", 
        "elevation": 0, 
        "feature_code": "PPL", 
        "latitude": 37.43861, 
        "longitude": 127.13778, 
        "name": "Seongnam-si", 
        "population": 1031935
    }, 
    {
        "country_code": "BR", 
        "elevation": 0, 
        "feature_code": "PPL", 
        "latitude": -22.90556, 
        "longitude": -47.06083, 
        "name": "Campinas", 
        "population": 1031554
    }, 
    {
        "country_code": "IN", 
        "elevation": 0, 
        "feature_code": "PPL", 
        "latitude": 23.16697, 
        "longitude": 79.95006, 
        "name": "Jabalpur", 
        "population": 1030168
    }, 
    {
        "country_code": "IN", 
        "elevation": 0, 
        "feature_code": "PPL", 
        "latitude": 22.57688, 
        "longitude": 88.31857, 
        "name": "H\u0101ora", 
        "population": 1027672
    }, 
    {
        "country_code": "CN", 
        "elevation": 0, 
        "feature_code": "PPL", 
        "latitude": 32.62639, 
        "longitude": 116.99694, 
        "name": "Huainan", 
        "population": 1027655
    }, 
    {
        "country_code": "UA", 
        "elevation": 0, 
        "feature_code": "PPLA", 
        "latitude": 48.023, 
        "longitude": 37.80224, 
        "name": "Donetsk", 
        "population": 1024700
    }, 
    {
        "country_code": "IE", 
        "elevation": 0, 
        "feature_code": "PPLC", 
        "latitude": 53.33306, 
        "longitude": -6.24889, 
        "name": "Dublin", 
        "population": 1024027
    }, 
    {
        "country_code": "CA", 
        "elevation": 1048, 
        "feature_code": "PPL", 
        "latitude": 51.05011, 
        "longitude": -114.08529, 
        "name": "Calgary", 
        "population": 1019942
    }, 
    {
        "country_code": "BE", 
        "elevation": 0, 
        "feature_code": "PPLC", 
        "latitude": 50.85045, 
        "longitude": 4.34878, 
        "name": "Brussels", 
        "population": 1019022
    }, 
    {
        "country_code": "IN", 
        "elevation": 0, 
        "feature_code": "PPLA2", 
        "latitude": 19.87757, 
        "longitude": 75.34226, 
        "name": "Aurangabad", 
        "population": 1016441
    }, 
    {
        "country_code": "RU", 
        "elevation": 0, 
        "feature_code": "PPLA", 
        "latitude": 48.71939, 
        "longitude": 44.50184, 
        "name": "Volgograd", 
        "population": 1011417
    }, 
    {
        "country_code": "BR", 
        "elevation": 0, 
        "feature_code": "PPLA2", 
        "latitude": -22.75917, 
        "longitude": -43.45111, 
        "name": "Nova Igua\u00e7u", 
        "population": 1002118
    }, 
    {
        "country_code": "CN", 
        "elevation": 0, 
        "feature_code": "PPLA2", 
        "latitude": 23.5418, 
        "longitude": 116.36581, 
        "name": "Jieyang", 
        "population": 1001985
    }, 
    {
        "country_code": "UA", 
        "elevation": 0, 
        "feature_code": "PPLA", 
        "latitude": 46.47747, 
        "longitude": 30.73262, 
        "name": "Odessa", 
        "population": 1001558
    }, 
    {
        "country_code": "CN", 
        "elevation": 0, 
        "feature_code": "PPLA3", 
        "latitude": 35.99502, 
        "longitude": 119.40259, 
        "name": "Zhu Cheng City", 
        "population": 1000000
    }, 
    {
        "country_code": "ID", 
        "elevation": 3, 
        "feature_code": "PPLR", 
        "latitude": -6.36836, 
        "longitude": 107.9558, 
        "name": "Masjid Jamie Baitul Muttaqien", 
        "population": 1000000
    }, 
    {
        "country_code": "IN", 
        "elevation": 1000, 
        "feature_code": "PPL", 
        "latitude": 18.53017, 
        "longitude": 73.85263, 
        "name": "Shivaji Nagar", 
        "population": 1000000
    }, 
    {
        "country_code": "JP", 
        "elevation": 0, 
        "feature_code": "PPL", 
        "latitude": 33.83333, 
        "longitude": 130.83333, 
        "name": "Kitaky\u016bsh\u016b", 
        "population": 997536
    }, 
    {
        "country_code": "IN", 
        "elevation": 0, 
        "feature_code": "PPL", 
        "latitude": 17.67152, 
        "longitude": 75.91044, 
        "name": "Sol\u0101pur", 
        "population": 997281
    }, 
    {
        "country_code": "CN", 
        "elevation": 0, 
        "feature_code": "PPL", 
        "latitude": 38.85111, 
        "longitude": 115.49028, 
        "name": "Baoding", 
        "population": 995652
    }, 
    {
        "country_code": "GT", 
        "elevation": 0, 
        "feature_code": "PPLC", 
        "latitude": 14.64072, 
        "longitude": -90.51327, 
        "name": "Guatemala City", 
        "population": 994938
    }, 
    {
        "country_code": "CN", 
        "elevation": 0, 
        "feature_code": "PPL", 
        "latitude": 41.28861, 
        "longitude": 123.765, 
        "name": "Benxi", 
        "population": 987717
    }, 
    {
        "country_code": "MX", 
        "elevation": 0, 
        "feature_code": "PPLA2", 
        "latitude": 20.72356, 
        "longitude": -103.38479, 
        "name": "Zapopan", 
        "population": 987516
    }, 
    {
        "country_code": "GB", 
        "elevation": 0, 
        "feature_code": "PPLA2", 
        "latitude": 52.48142, 
        "longitude": -1.89983, 
        "name": "Birmingham", 
        "population": 984333
    }, 
    {
        "country_code": "RU", 
        "elevation": 0, 
        "feature_code": "PPLA", 
        "latitude": 58.01046, 
        "longitude": 56.25017, 
        "name": "Perm", 
        "population": 982419
    }, 
    {
        "country_code": "IN", 
        "elevation": 0, 
        "feature_code": "PPLA", 
        "latitude": 34.08842, 
        "longitude": 74.80298, 
        "name": "Srinagar", 
        "population": 975857
    }, 
    {
        "country_code": "NG", 
        "elevation": 0, 
        "feature_code": "PPL", 
        "latitude": 11.11128, 
        "longitude": 7.7227, 
        "name": "Zaria", 
        "population": 975153
    }, 
    {
        "country_code": "NI", 
        "elevation": 0, 
        "feature_code": "PPLC", 
        "latitude": 12.13282, 
        "longitude": -86.2504, 
        "name": "Managua", 
        "population": 973087
    }, 
    {
        "country_code": "ZA", 
        "elevation": 0, 
        "feature_code": "PPLA2", 
        "latitude": -33.91799, 
        "longitude": 25.57007, 
        "name": "Port Elizabeth", 
        "population": 967677
    }, 
    {
        "country_code": "MA", 
        "elevation": 0, 
        "feature_code": "PPLA", 
        "latitude": 34.03715, 
        "longitude": -4.9998, 
        "name": "F\u00e8s", 
        "population": 964891
    }, 
    {
        "country_code": "DE", 
        "elevation": 0, 
        "feature_code": "PPLA2", 
        "latitude": 50.93333, 
        "longitude": 6.95, 
        "name": "K\u00f6ln", 
        "population": 963395
    }, 
    {
        "country_code": "KR", 
        "elevation": 0, 
        "feature_code": "PPLA", 
        "latitude": 35.53722, 
        "longitude": 129.31667, 
        "name": "Ulsan", 
        "population": 962865
    }, 
    {
        "country_code": "IN", 
        "elevation": 0, 
        "feature_code": "PPLA", 
        "latitude": 30.73629, 
        "longitude": 76.7884, 
        "name": "Chandigarh", 
        "population": 960787
    }, 
    {
        "country_code": "IN", 
        "elevation": 0, 
        "feature_code": "PPL", 
        "latitude": 11.00555, 
        "longitude": 76.96612, 
        "name": "Coimbatore", 
        "population": 959823
    }, 
    {
        "country_code": "IT", 
        "elevation": 17, 
        "feature_code": "PPLA", 
        "latitude": 40.85631, 
        "longitude": 14.24641, 
        "name": "Napoli", 
        "population": 959470
    }, 
    {
        "country_code": "BR", 
        "elevation": 0, 
        "feature_code": "PPLA", 
        "latitude": -9.66583, 
        "longitude": -35.73528, 
        "name": "Macei\u00f3", 
        "population": 954991
    }, 
    {
        "country_code": "CO", 
        "elevation": 0, 
        "feature_code": "PPLA", 
        "latitude": 10.39972, 
        "longitude": -75.51444, 
        "name": "Cartagena", 
        "population": 952024
    }, 
    {
        "country_code": "CN", 
        "elevation": 0, 
        "feature_code": "PPLA2", 
        "latitude": 31.77358, 
        "longitude": 119.95401, 
        "name": "Changzhou", 
        "population": 949018
    }, 
    {
        "country_code": "SA", 
        "elevation": 0, 
        "feature_code": "PPL", 
        "latitude": 24.49258, 
        "longitude": 39.58572, 
        "name": "Sul\u0163\u0101nah", 
        "population": 946697
    }, 
    {
        "country_code": "US", 
        "elevation": 26, 
        "feature_code": "PPLA2", 
        "latitude": 37.33939, 
        "longitude": -121.89496, 
        "name": "San Jose", 
        "population": 945942
    }, 
    {
        "country_code": "LR", 
        "elevation": 0, 
        "feature_code": "PPLC", 
        "latitude": 6.30054, 
        "longitude": -10.7969, 
        "name": "Monrovia", 
        "population": 939524
    }, 
    {
        "country_code": "JM", 
        "elevation": 0, 
        "feature_code": "PPLC", 
        "latitude": 17.99702, 
        "longitude": -76.79358, 
        "name": "Kingston", 
        "population": 937700
    }, 
    {
        "country_code": "IQ", 
        "elevation": 0, 
        "feature_code": "PPLA", 
        "latitude": 36.19257, 
        "longitude": 44.01062, 
        "name": "Erbil", 
        "population": 932800
    }, 
    {
        "country_code": "RU", 
        "elevation": 0, 
        "feature_code": "PPLA", 
        "latitude": 56.01839, 
        "longitude": 92.86717, 
        "name": "Krasnoyarsk", 
        "population": 927200
    }, 
    {
        "country_code": "MM", 
        "elevation": 0, 
        "feature_code": "PPLC", 
        "latitude": 19.745, 
        "longitude": 96.12972, 
        "name": "Nay Pyi Taw", 
        "population": 925000
    }, 
    {
        "country_code": "IN", 
        "elevation": 0, 
        "feature_code": "PPL", 
        "latitude": 26.26841, 
        "longitude": 73.00594, 
        "name": "Jodhpur", 
        "population": 921476
    }, 
    {
        "country_code": "JP", 
        "elevation": 0, 
        "feature_code": "PPLA", 
        "latitude": 35.60472, 
        "longitude": 140.12333, 
        "name": "Chiba", 
        "population": 919729
    }, 
    {
        "country_code": "BR", 
        "elevation": 0, 
        "feature_code": "PPLA", 
        "latitude": -2.52972, 
        "longitude": -44.30278, 
        "name": "S\u00e3o Lu\u00eds", 
        "population": 917237
    }, 
    {
        "country_code": "IN", 
        "elevation": 0, 
        "feature_code": "PPL", 
        "latitude": 9.91735, 
        "longitude": 78.11962, 
        "name": "Madurai", 
        "population": 909908
    }, 
    {
        "country_code": "MA", 
        "elevation": 0, 
        "feature_code": "PPL", 
        "latitude": 34.0531, 
        "longitude": -6.79846, 
        "name": "Sale", 
        "population": 903485
    }, 
    {
        "country_code": "CN", 
        "elevation": 0, 
        "feature_code": "PPL", 
        "latitude": 33.97444, 
        "longitude": 116.79167, 
        "name": "Huaibei", 
        "population": 903039
    }, 
    {
        "country_code": "BO", 
        "elevation": 0, 
        "feature_code": "PPLA", 
        "latitude": -17.3895, 
        "longitude": -66.1568, 
        "name": "Cochabamba", 
        "population": 900414
    }, 
    {
        "country_code": "CI", 
        "elevation": 0, 
        "feature_code": "PPL", 
        "latitude": 5.41613, 
        "longitude": -4.0159, 
        "name": "Abobo", 
        "population": 900000
    }, 
    {
        "country_code": "CN", 
        "elevation": 0, 
        "feature_code": "PPL", 
        "latitude": 34.7986, 
        "longitude": 114.30742, 
        "name": "Kaifeng", 
        "population": 900000
    }, 
    {
        "country_code": "IQ", 
        "elevation": 0, 
        "feature_code": "PPLA2", 
        "latitude": 33.30703, 
        "longitude": 44.18694, 
        "name": "Ab\u016b Ghurayb", 
        "population": 900000
    }, 
    {
        "country_code": "IR", 
        "elevation": 0, 
        "feature_code": "PPLA", 
        "latitude": 34.6401, 
        "longitude": 50.8764, 
        "name": "Qom", 
        "population": 900000
    }, 
    {
        "country_code": "KG", 
        "elevation": 0, 
        "feature_code": "PPLC", 
        "latitude": 42.87, 
        "longitude": 74.59, 
        "name": "Bishkek", 
        "population": 900000
    }, 
    {
        "country_code": "IN", 
        "elevation": 0, 
        "feature_code": "PPL", 
        "latitude": 26.1844, 
        "longitude": 91.7458, 
        "name": "Guwahati", 
        "population": 899094
    }, 
    {
        "country_code": "NG", 
        "elevation": 0, 
        "feature_code": "PPLA2", 
        "latitude": 5.10658, 
        "longitude": 7.36667, 
        "name": "Aba", 
        "population": 897560
    }, 
    {
        "country_code": "CN", 
        "elevation": 0, 
        "feature_code": "PPL", 
        "latitude": 33.73847, 
        "longitude": 113.30119, 
        "name": "Pingdingshan", 
        "population": 889675
    }, 
    {
        "country_code": "IN", 
        "elevation": 0, 
        "feature_code": "PPL", 
        "latitude": 26.22982, 
        "longitude": 78.17337, 
        "name": "Gwalior", 
        "population": 882458
    }, 
    {
        "country_code": "CN", 
        "elevation": 0, 
        "feature_code": "PPLA2", 
        "latitude": 47.34088, 
        "longitude": 123.96045, 
        "name": "Qiqihar", 
        "population": 882364
    }, 
    {
        "country_code": "MY", 
        "elevation": 0, 
        "feature_code": "PPLA", 
        "latitude": 3.03333, 
        "longitude": 101.45, 
        "name": "Klang", 
        "population": 879867
    }, 
    {
        "country_code": "AR", 
        "elevation": 0, 
        "feature_code": "PPLA", 
        "latitude": -32.89084, 
        "longitude": -68.82717, 
        "name": "Mendoza", 
        "population": 876884
    }, 
    {
        "country_code": "TR", 
        "elevation": 0, 
        "feature_code": "PPLA", 
        "latitude": 37.87135, 
        "longitude": 32.48464, 
        "name": "Konya", 
        "population": 875530
    }, 
    {
        "country_code": "CD", 
        "elevation": 0, 
        "feature_code": "PPLA", 
        "latitude": -6.13603, 
        "longitude": 23.58979, 
        "name": "Mbuji-Mayi", 
        "population": 874761
    }, 
    {
        "country_code": "IN", 
        "elevation": 0, 
        "feature_code": "PPL", 
        "latitude": 16.51928, 
        "longitude": 80.63049, 
        "name": "Vijayaw\u0101da", 
        "population": 874587
    }, 
    {
        "country_code": "SN", 
        "elevation": 0, 
        "feature_code": "PPL", 
        "latitude": 14.76457, 
        "longitude": -17.39071, 
        "name": "Pikine", 
        "population": 874062
    }, 
    {
        "country_code": "IT", 
        "elevation": 239, 
        "feature_code": "PPLA", 
        "latitude": 45.07049, 
        "longitude": 7.68682, 
        "name": "Turin", 
        "population": 870456
    }, 
    {
        "country_code": "IN", 
        "elevation": 0, 
        "feature_code": "PPL", 
        "latitude": 12.29791, 
        "longitude": 76.63925, 
        "name": "Mysore", 
        "population": 868313
    }, 
    {
        "country_code": "CN", 
        "elevation": 0, 
        "feature_code": "PPL", 
        "latitude": 27.99942, 
        "longitude": 120.66682, 
        "name": "Wenzhou", 
        "population": 865672
    }, 
    {
        "country_code": "RU", 
        "elevation": 0, 
        "feature_code": "PPLA", 
        "latitude": 51.54056, 
        "longitude": 46.00861, 
        "name": "Saratov", 
        "population": 863725
    }, 
    {
        "country_code": "HN", 
        "elevation": 0, 
        "feature_code": "PPLC", 
        "latitude": 14.0818, 
        "longitude": -87.20681, 
        "name": "Tegucigalpa", 
        "population": 850848
    }, 
    {
        "country_code": "KR", 
        "elevation": 0, 
        "feature_code": "PPL", 
        "latitude": 37.49889, 
        "longitude": 126.78306, 
        "name": "Bucheon-si", 
        "population": 850731
    }, 
    {
        "country_code": "RU", 
        "elevation": 0, 
        "feature_code": "PPLA", 
        "latitude": 51.67204, 
        "longitude": 39.1843, 
        "name": "Voronezh", 
        "population": 848752
    }, 
    {
        "country_code": "IN", 
        "elevation": 0, 
        "feature_code": "PPLA", 
        "latitude": 23.34777, 
        "longitude": 85.33856, 
        "name": "Ranchi", 
        "population": 846454
    }, 
    {
        "country_code": "MX", 
        "elevation": 0, 
        "feature_code": "PPL", 
        "latitude": 19.47851, 
        "longitude": -99.23963, 
        "name": "Naucalpan de Ju\u00e1rez", 
        "population": 846185
    }, 
    {
        "country_code": "MN", 
        "elevation": 0, 
        "feature_code": "PPLC", 
        "latitude": 47.90771, 
        "longitude": 106.88324, 
        "name": "Ulaanbaatar", 
        "population": 844818
    }, 
    {
        "country_code": "KH", 
        "elevation": 0, 
        "feature_code": "PPLA", 
        "latitude": 10.99081, 
        "longitude": 104.78498, 
        "name": "Takeo", 
        "population": 843931
    }, 
    {
        "country_code": "IR", 
        "elevation": 0, 
        "feature_code": "PPLA", 
        "latitude": 31.31901, 
        "longitude": 48.6842, 
        "name": "Ahvaz", 
        "population": 841145
    }, 
    {
        "country_code": "PE", 
        "elevation": 0, 
        "feature_code": "PPLA", 
        "latitude": -16.39889, 
        "longitude": -71.535, 
        "name": "Arequipa", 
        "population": 841130
    }, 
    {
        "country_code": "ID", 
        "elevation": 0, 
        "feature_code": "PPLA", 
        "latitude": -0.94924, 
        "longitude": 100.35427, 
        "name": "Padang", 
        "population": 840352
    }, 
    {
        "country_code": "IN", 
        "elevation": 627, 
        "feature_code": "PPL", 
        "latitude": 15.34776, 
        "longitude": 75.13378, 
        "name": "Hubli", 
        "population": 840214
    }, 
    {
        "country_code": "MA", 
        "elevation": 0, 
        "feature_code": "PPLA", 
        "latitude": 31.63416, 
        "longitude": -7.99994, 
        "name": "Marrakesh", 
        "population": 839296
    }, 
    {
        "country_code": "MY", 
        "elevation": 0, 
        "feature_code": "PPL", 
        "latitude": 3.15, 
        "longitude": 101.53333, 
        "name": "Kampung Baru Subang", 
        "population": 833571
    }, 
    {
        "country_code": "US", 
        "elevation": 218, 
        "feature_code": "PPLA", 
        "latitude": 39.76838, 
        "longitude": -86.15804, 
        "name": "Indianapolis", 
        "population": 829718
    }, 
    {
        "country_code": "US", 
        "elevation": 5, 
        "feature_code": "PPLA2", 
        "latitude": 30.33218, 
        "longitude": -81.65565, 
        "name": "Jacksonville", 
        "population": 821784
    }, 
    {
        "country_code": "BR", 
        "elevation": 0, 
        "feature_code": "PPL", 
        "latitude": -22.78556, 
        "longitude": -43.31167, 
        "name": "Duque de Caxias", 
        "population": 818329
    }, 
    {
        "country_code": "NG", 
        "elevation": 0, 
        "feature_code": "PPLA", 
        "latitude": 9.92849, 
        "longitude": 8.89212, 
        "name": "Jos", 
        "population": 816824
    }, 
    {
        "country_code": "ES", 
        "elevation": 15, 
        "feature_code": "PPLA", 
        "latitude": 39.46975, 
        "longitude": -0.37739, 
        "name": "Valencia", 
        "population": 814208
    }, 
    {
        "country_code": "NG", 
        "elevation": 0, 
        "feature_code": "PPLA", 
        "latitude": 8.5, 
        "longitude": 4.55, 
        "name": "Ilorin", 
        "population": 814192
    }, 
    {
        "country_code": "PE", 
        "elevation": 0, 
        "feature_code": "PPLA", 
        "latitude": -12.05658, 
        "longitude": -77.11814, 
        "name": "Callao", 
        "population": 813264
    }, 
    {
        "country_code": "BO", 
        "elevation": 0, 
        "feature_code": "PPLG", 
        "latitude": -16.5, 
        "longitude": -68.15, 
        "name": "La Paz", 
        "population": 812799
    }, 
    {
        "country_code": "CA", 
        "elevation": 0, 
        "feature_code": "PPLC", 
        "latitude": 45.41117, 
        "longitude": -75.69812, 
        "name": "Ottawa", 
        "population": 812129
    }, 
    {
        "country_code": "VE", 
        "elevation": 0, 
        "feature_code": "PPLA", 
        "latitude": 10.07389, 
        "longitude": -69.32278, 
        "name": "Barquisimeto", 
        "population": 809490
    }, 
    {
        "country_code": "MX", 
        "elevation": 0, 
        "feature_code": "PPLA", 
        "latitude": 28.63528, 
        "longitude": -106.08889, 
        "name": "Chihuahua", 
        "population": 809232
    }, 
    {
        "country_code": "US", 
        "elevation": 16, 
        "feature_code": "PPLA2", 
        "latitude": 37.77493, 
        "longitude": -122.41942, 
        "name": "San Francisco", 
        "population": 805235
    }, 
    {
        "country_code": "CN", 
        "elevation": 0, 
        "feature_code": "PPLA", 
        "latitude": 22.81667, 
        "longitude": 108.31667, 
        "name": "Nanning", 
        "population": 803788
    }, 
    {
        "country_code": "SL", 
        "elevation": 0, 
        "feature_code": "PPLC", 
        "latitude": 8.484, 
        "longitude": -13.22994, 
        "name": "Freetown", 
        "population": 802639
    }, 
    {
        "country_code": "MY", 
        "elevation": 0, 
        "feature_code": "PPLA", 
        "latitude": 1.4655, 
        "longitude": 103.7578, 
        "name": "Johor Bahru", 
        "population": 802489
    }, 
    {
        "country_code": "IL", 
        "elevation": 0, 
        "feature_code": "PPLA", 
        "latitude": 31.76904, 
        "longitude": 35.21633, 
        "name": "Jerusalem", 
        "population": 801000
    }, 
    {
        "country_code": "ID", 
        "elevation": 0, 
        "feature_code": "PPLA", 
        "latitude": -5.42544, 
        "longitude": 105.25803, 
        "name": "Bandarlampung", 
        "population": 800348
    }, 
    {
        "country_code": "HR", 
        "elevation": 0, 
        "feature_code": "PPLX", 
        "latitude": 45.81313, 
        "longitude": 15.97753, 
        "name": "Zagreb - Centar", 
        "population": 800000
    },